%time,field.header.seq,field.header.stamp,field.header.frame_id,field.sentence
1563269738604802392,66499,1563269737442172050,/gps,$GNGSA,A,3,13,28,11,23,,,,,,,,,1.30,0.73,1.08,4*02
1563269738604833658,66500,1563269737473413944,/gps,$GPGSV,3,1,11,02,14,038,26,05,08,069,22,12,04,103,,14,10,229,26,1*60
1563269738604846458,66501,1563269737476254940,/gps,$GPGSV,3,2,11,16,14,285,32,21,28,171,27,23,11,323,34,25,42,103,31,1*67
1563269738604856698,66502,1563269737480204105,/gps,$GPGSV,3,3,11,26,42,290,37,29,70,065,39,31,63,232,38,1*53
1563269738604922205,66503,1563269737485837936,/gps,$GPGSV,3,1,11,02,14,038,,05,08,069,,12,04,103,,14,10,229,,6*67
1563269738604933085,66504,1563269737492106914,/gps,$GPGSV,3,2,11,16,14,285,,21,28,171,,23,11,323,,25,42,103,21,6*62
1563269738604946590,66505,1563269737494820117,/gps,$GPGSV,3,3,11,26,42,290,27,29,70,065,25,31,63,232,23,6*52
1563269738605005632,66506,1563269737498774051,/gps,$GLGSV,3,1,10,69,07,309,31,70,11,003,30,76,03,136,,77,55,135,33,1*7D
1563269738605099523,66507,1563269737558083057,/gps,$GLGSV,3,2,10,78,66,318,38,79,14,316,35,81,06,210,28,86,15,035,34,1*72
1563269738605107971,66508,1563269737562382936,/gps,$GLGSV,3,3,10,87,74,061,37,88,51,201,32,1*70
1563269738605148805,66509,1563269737568237066,/gps,$GLGSV,3,1,10,69,07,309,25,70,11,003,,76,03,136,,77,55,135,,3*79
1563269738605156805,66510,1563269737571609020,/gps,$GLGSV,3,2,10,78,66,318,28,79,14,316,22,81,06,210,16,86,15,035,27,3*78
1563269738605212167,66511,1563269737573829889,/gps,$GLGSV,3,3,10,87,74,061,22,88,51,201,,3*77
1563269738605226824,66512,1563269737576209068,/gps,$GNRMC,083536.40,A,5056.33634,N,00128.25341,W,0.054,,160719,,,A,V*0D
1563269738605235784,66513,1563269737587598085,/gps,$GNVTG,,T,,M,0.054,N,0.100,K,A*3D
1563269738605243976,66514,1563269737590378046,/gps,$GNGGA,083536.40,5056.33634,N,00128.25341,W,1,12,0.73,16.9,M,47.1,M,,*69
1563269738605265065,66515,1563269737595920085,/gps,$GNGSA,A,3,21,25,29,31,16,26,23,02,,,,,1.30,0.73,1.08,1*03
1563269738605642615,66516,1563269737644903898,/gps,$GNGSA,A,3,88,86,77,78,87,79,,,,,,,1.30,0.73,1.08,2*0D
1563269738670910109,66517,1563269737647984981,/gps,$GNGSA,A,3,,,,,,,,,,,,,1.30,0.73,1.08,3*0C
1563269738700661225,66518,1563269737649563074,/gps,$GNGSA,A,3,13,28,11,23,,,,,,,,,1.30,0.73,1.08,4*02
1563269738712516754,66519,1563269737651302099,/gps,$GPGSV,3,1,11,02,14,038,26,05,08,069,22,12,04,103,,14,10,229,26,1*60
1563269738712614102,66520,1563269737654069900,/gps,$GPGSV,3,2,11,16,14,285,32,21,28,171,27,23,11,323,34,25,42,103,31,1*67
1563269738712767035,66521,1563269737658751010,/gps,$GPGSV,3,3,11,26,42,290,37,29,70,065,39,31,63,232,38,1*53
1563269738712786076,66522,1563269737664717912,/gps,$GPGSV,3,1,11,02,14,038,,05,08,069,,12,04,103,,14,10,229,,6*67
1563269738712797500,66523,1563269737669049978,/gps,$GPGSV,3,2,11,16,14,285,,21,28,171,,23,11,323,,25,42,103,21,6*62
1563269738712807261,66524,1563269737729799985,/gps,$GPGSV,3,3,11,26,42,290,27,29,70,065,25,31,63,232,23,6*52
1563269738713018756,66525,1563269737732167959,/gps,$GLGSV,3,1,10,69,07,309,31,70,11,003,30,76,03,136,,77,55,135,33,1*7D
1563269738713029925,66526,1563269737737204074,/gps,$GLGSV,3,2,10,78,66,318,38,79,14,316,35,81,06,210,28,86,15,035,33,1*75
1563269738713039845,66527,1563269737740313053,/gps,$GLGSV,3,3,10,87,74,061,37,88,51,201,32,1*70
1563269738713048581,66528,1563269737746222019,/gps,$GLGSV,3,1,10,69,07,309,25,70,11,003,,76,03,136,,77,55,135,,3*79
1563269738713071558,66529,1563269737749773025,/gps,$GLGSV,3,2,10,78,66,318,28,79,14,316,22,81,06,210,16,86,15,035,27,3*78
1563269738713333488,66530,1563269737753443002,/gps,$GNRMC,083536.60,A,5056.33634,N,00128.25341,W,0.010,,160719,,,A,V*0F
1563269738713362385,66531,1563269737759128093,/gps,$GNVTG,,T,,M,0.010,N,0.019,K,A*34
1563269738713375249,66532,1563269737816772937,/gps,$GNGGA,083536.60,5056.33634,N,00128.25341,W,1,12,0.73,16.9,M,47.1,M,,*6B
1563269738713387121,66533,1563269737822108983,/gps,$GNGSA,A,3,21,25,29,31,16,26,23,02,,,,,1.30,0.73,1.08,1*03
1563269738713480309,66534,1563269737824469089,/gps,$GNGSA,A,3,88,86,77,78,87,79,,,,,,,1.30,0.73,1.08,2*0D
1563269738713560600,66535,1563269737826575040,/gps,$GNGSA,A,3,,,,,,,,,,,,,1.30,0.73,1.08,3*0C
1563269738713572984,66536,1563269737829646110,/gps,$GNGSA,A,3,13,28,11,23,,,,,,,,,1.30,0.73,1.08,4*02
1563269738713650459,66537,1563269737834229946,/gps,$GPGSV,3,1,11,02,14,038,26,05,08,069,22,12,04,103,,14,10,229,26,1*60
1563269738713697085,66538,1563269737844635963,/gps,$GPGSV,3,2,11,16,14,285,32,21,28,171,27,23,11,323,34,25,42,103,31,1*67
1563269738713708349,66539,1563269737857168912,/gps,$GPGSV,3,3,11,26,42,290,37,29,70,065,39,31,63,232,38,1*53
1563269738713718813,66540,1563269737901746034,/gps,$GPGSV,3,1,11,02,14,038,,05,08,069,,12,04,103,,14,10,229,,6*67
1563269738713730078,66541,1563269737904792070,/gps,$GPGSV,3,2,11,16,14,285,,21,28,171,,23,11,323,,25,42,103,21,6*62
1563269738713740574,66542,1563269737907401084,/gps,$GPGSV,3,3,11,26,42,290,27,29,70,065,25,31,63,232,23,6*52
1563269738713751871,66543,1563269737910175085,/gps,$GLGSV,3,1,10,69,07,309,31,70,11,003,30,76,03,136,,77,55,135,33,1*7D
1563269738713807393,66544,1563269737912889003,/gps,$GLGSV,3,2,10,78,66,318,38,79,14,316,35,81,06,210,27,86,15,035,33,1*7A
1563269738713817057,66545,1563269737917644023,/gps,$GLGSV,3,3,10,87,74,061,37,88,51,201,32,1*70
1563269738713858626,66546,1563269737922648906,/gps,$GLGSV,3,1,10,69,07,309,25,70,11,003,,76,03,136,,77,55,135,,3*79
1563269738713869123,66547,1563269737927800893,/gps,$GLGSV,3,2,10,78,66,318,28,79,14,316,21,81,06,210,16,86,15,035,27,3*7B
1563269738713878435,66548,1563269737988425970,/gps,$GLGSV,3,3,10,87,74,061,22,88,51,201,,3*77
1563269738713888739,66549,1563269737991203069,/gps,$GNRMC,083536.80,A,5056.33635,N,00128.25341,W,0.047,,160719,,,A,V*02
1563269738713898084,66550,1563269738000835895,/gps,$GNVTG,,T,,M,0.047,N,0.086,K,A*30
1563269738713907460,66551,1563269738005284070,/gps,$GNGGA,083536.80,5056.33635,N,00128.25341,W,1,12,0.73,16.9,M,47.1,M,,*64
1563269738713917797,66552,1563269738021095991,/gps,$GNGSA,A,3,21,25,29,31,16,26,23,02,,,,,1.30,0.73,1.08,1*03
1563269738714020872,66553,1563269738028345108,/gps,$GNGSA,A,3,88,86,77,78,87,79,,,,,,,1.30,0.73,1.08,2*0D
1563269738714031529,66554,1563269738032036066,/gps,$GNGSA,A,3,,,,,,,,,,,,,1.30,0.73,1.08,3*0C
1563269738714041097,66555,1563269738043679952,/gps,$GNGSA,A,3,13,28,11,23,,,,,,,,,1.30,0.73,1.08,4*02
1563269738714050889,66556,1563269738058481931,/gps,$GPGSV,3,1,11,02,14,038,26,05,08,069,22,12,04,103,,14,10,229,26,1*60
1563269738714060170,66557,1563269738074991941,/gps,$GPGSV,3,2,11,16,14,285,32,21,28,171,27,23,11,323,34,25,42,103,31,1*67
1563269738714070154,66558,1563269738076956033,/gps,$GPGSV,3,3,11,26,42,290,38,29,70,065,39,31,63,232,38,1*5C
1563269738714079370,66561,1563269738090831041,/gps,$GPGSV,3,3,11,26,42,290,27,29,70,065,25,31,63,232,23,6*52
1563269738714088939,66562,1563269738092649936,/gps,$GLGSV,3,1,10,69,07,309,31,70,11,003,30,76,03,136,,77,55,135,33,1*7D
1563269738714177614,66563,1563269738094461917,/gps,$GLGSV,3,2,10,78,66,318,38,79,14,316,35,81,06,210,27,86,15,035,33,1*7A
1563269738714189838,66565,1563269738159774065,/gps,$GLGSV,3,1,10,69,07,309,25,70,11,003,,76,03,136,,77,55,135,23,3*78
1563269738714200335,66566,1563269738163372993,/gps,$GLGSV,3,2,10,78,66,318,28,79,14,316,21,81,06,210,16,86,15,035,27,3*7B
1563269738714244624,66567,1563269738173428058,/gps,$GLGSV,3,3,10,87,74,061,22,88,51,201,,3*77
1563269738714264945,66568,1563269738177475929,/gps,$GNRMC,083537.00,A,5056.33635,N,00128.25341,W,0.029,,160719,,,A,V*03
1563269738714276209,66569,1563269738179980039,/gps,$GNVTG,,T,,M,0.029,N,0.054,K,A*37
1563269738714322131,66570,1563269738185226917,/gps,$GNGGA,083537.00,5056.33635,N,00128.25341,W,1,12,0.73,16.9,M,47.1,M,,*6D
1563269738714431863,66571,1563269738190587997,/gps,$GNGSA,A,3,21,25,29,31,16,26,23,02,,,,,1.30,0.73,1.08,1*03
1563269738714442967,66572,1563269738192248106,/gps,$GNGSA,A,3,88,86,77,78,87,79,,,,,,,1.30,0.73,1.08,2*0D
1563269738714509978,66575,1563269738250801086,/gps,$GPGSV,3,1,11,02,14,038,26,05,08,069,21,12,04,103,,14,10,229,26,1*63
1563269738714519546,66576,1563269738253070116,/gps,$GPGSV,3,2,11,16,14,285,32,21,28,171,27,23,11,323,34,25,42,103,31,1*67
1563269738714528538,66577,1563269738255219936,/gps,$GPGSV,3,3,11,26,42,290,37,29,70,065,39,31,63,232,38,1*53
1563269738714538299,66578,1563269738256841897,/gps,$GPGSV,3,1,11,02,14,038,,05,08,069,,12,04,103,,14,10,229,,6*67
1563269738714547259,66579,1563269738259941101,/gps,$GPGSV,3,2,11,16,14,285,,21,28,171,,23,11,323,,25,42,103,21,6*62
1563269738714902792,66580,1563269738267390966,/gps,$GPGSV,3,3,11,26,42,290,27,29,70,065,25,31,63,232,23,6*52
1563269738714912680,66581,1563269738329770088,/gps,$GLGSV,3,1,10,69,07,309,31,70,11,003,30,76,03,136,,77,55,135,33,1*7D
1563269738714922281,66582,1563269738332247018,/gps,$GLGSV,3,2,10,78,66,318,38,79,14,316,35,81,06,210,27,86,15,035,33,1*7A
1563269738714932393,66584,1563269738341495037,/gps,$GLGSV,3,1,10,69,07,309,25,70,11,003,,76,03,136,,77,55,135,23,3*78
1563269738714942121,66585,1563269738344006061,/gps,$GLGSV,3,2,10,78,66,318,28,79,14,316,21,81,06,210,15,86,15,035,27,3*78
1563269738714950890,66586,1563269738346966028,/gps,$GLGSV,3,3,10,87,74,061,22,88,51,201,,3*77
1563269738714970698,66587,1563269738348424911,/gps,$GNTXT,01,01,00,txbuf alloc*61
1563269738714981803,66588,1563269738352901935,/gps,$GNRMC,083537.20,A,5056.33635,N,00128.25341,W,0.023,,160719,,,A,V*0B
1563269738714991499,66589,1563269738354104995,/gps,$GNVTG,,T,,M,0.023,N,0.042,K,A*3A
1563269738715010156,66590,1563269738415904998,/gps,$GNGGA,083537.20,5056.33635,N,00128.25341,W,1,12,0.73,16.9,M,47.1,M,,*6F
1563269738715021868,66591,1563269738419169902,/gps,$GNGSA,A,3,21,25,29,31,16,26,23,02,,,,,1.30,0.73,1.08,1*03
1563269738723755366,66592,1563269738421102046,/gps,$GNGSA,A,3,88,86,77,78,87,79,,,,,,,1.30,0.73,1.08,2*0D
1563269738723895851,66593,1563269738424586057,/gps,$GNGSA,A,3,,,,,,,,,,,,,1.30,0.73,1.08,3*0C
1563269738723917995,66594,1563269738427344083,/gps,$GNGSA,A,3,13,28,11,23,,,,,,,,,1.30,0.73,1.08,4*02
1563269738726137147,66595,1563269738430262088,/gps,$GPGSV,3,1,11,02,14,038,27,05,08,069,21,12,04,103,,14,10,229,26,1*62
1563269738726160796,66596,1563269738434923887,/gps,$GPGSV,3,2,11,16,14,285,32,21,28,171,27,23,11,323,34,25,42,103,31,1*67
1563269738726210942,66597,1563269738438354969,/gps,$GPGSV,3,3,11,26,42,290,37,29,70,065,39,31,63,232,38,1*53
1563269738726224702,66598,1563269738501704931,/gps,$GPGSV,3,1,11,02,14,038,,05,08,069,,12,04,103,,14,10,229,,6*67
1563269738726235199,66599,1563269738504889965,/gps,$GPGSV,3,2,11,16,14,285,,21,28,171,,23,11,323,,25,42,103,21,6*62
1563269738726259359,66600,1563269738519592046,/gps,$GPGSV,3,3,11,26,42,290,28,29,70,065,25,31,63,232,23,6*5D
1563269738726271424,66601,1563269738531373023,/gps,$GLGSV,3,1,10,69,07,309,31,70,11,003,30,76,03,136,,77,55,135,33,1*7D
1563269738726282688,66602,1563269738538290023,/gps,$GLGSV,3,2,10,78,66,318,38,79,14,316,35,81,07,210,27,86,15,035,33,1*7B
1563269738726294785,66603,1563269738549335956,/gps,$GLGSV,3,3,10,87,74,061,37,88,51,201,32,1*70
1563269738726305601,66604,1563269738557760953,/gps,$GLGSV,3,1,10,69,07,309,26,70,11,003,,76,03,136,,77,55,135,23,3*7B
1563269738747259153,66605,1563269738586282014,/gps,$GLGSV,3,2,10,78,66,318,28,79,14,316,21,81,07,210,15,86,15,035,27,3*79
1563269738747274162,66608,1563269738594892978,/gps,$GNVTG,,T,,M,0.011,N,0.021,K,A*3E
1563269738747285490,66609,1563269738603302955,/gps,$GNGGA,083537.40,5056.33635,N,00128.25341,W,1,12,0.73,16.9,M,47.1,M,,*69
1563269738747295218,66610,1563269738606683969,/gps,$GNGSA,A,3,21,25,29,31,16,26,23,02,,,,,1.30,0.73,1.08,1*03
1563269738747319955,66611,1563269738609384059,/gps,$GNGSA,A,3,88,86,77,78,87,79,,,,,,,1.30,0.73,1.08,2*0D
1563269738747340116,66612,1563269738611198902,/gps,$GNGSA,A,3,,,,,,,,,,,,,1.30,0.73,1.08,3*0C
1563269738750370017,66613,1563269738623035907,/gps,$GNGSA,A,3,13,28,11,23,,,,,,,,,1.30,0.73,1.08,4*02
1563269738753092867,66614,1563269738679440975,/gps,$GPGSV,3,1,11,02,14,038,27,05,08,069,21,12,04,103,,14,10,229,26,1*62
1563269738753113507,66615,1563269738713079929,/gps,$GPGSV,3,2,11,16,14,285,32,21,28,171,27,23,11,323,34,25,42,103,31,1*67
1563269738756136912,66616,1563269738715229034,/gps,$GPGSV,3,3,11,26,42,290,38,29,70,065,39,31,63,232,38,1*5C
1563269738756188242,66617,1563269738717705011,/gps,$GPGSV,3,1,11,02,14,038,,05,08,069,,12,04,103,,14,10,229,,6*67
1563269738756200882,66618,1563269738720335960,/gps,$GPGSV,3,2,11,16,14,285,,21,28,171,,23,11,323,,25,42,103,21,6*62
1563269738756213299,66619,1563269738723265886,/gps,$GPGSV,3,3,11,26,42,290,27,29,70,065,25,31,63,232,23,6*52
1563269738756222995,66620,1563269738725475072,/gps,$GLGSV,3,1,10,69,07,309,31,70,11,003,30,76,03,136,,77,55,135,32,1*7C
1563269738756231763,66621,1563269738728446960,/gps,$GLGSV,3,2,10,78,66,318,38,79,14,316,35,81,07,210,27,86,15,035,33,1*7B
1563269738878865156,66622,1563269738758930921,/gps,$GLGSV,3,3,10,87,74,061,37,88,51,201,32,1*70
1563269738878949607,66623,1563269738763003110,/gps,$GLGSV,3,1,10,69,07,309,25,70,11,003,,76,03,136,,77,55,135,23,3*78
1563269738878972104,66624,1563269738765876054,/gps,$GLGSV,3,2,10,78,66,318,29,79,14,316,21,81,07,210,15,86,15,035,27,3*78
1563269738879305620,66625,1563269738772475957,/gps,$GNRMC,083537.60,A,5056.33634,N,00128.25341,W,0.050,,160719,,,A,V*0A
1563269738879322389,66626,1563269738774647951,/gps,$GNVTG,,T,,M,0.050,N,0.092,K,A*33
1563269738879375863,66627,1563269738781178951,/gps,$GNGGA,083537.60,5056.33634,N,00128.25341,W,1,12,0.73,16.9,M,47.1,M,,*6A
1563269738879423576,66628,1563269738796732902,/gps,$GNGSA,A,3,21,25,29,31,16,26,23,02,,,,,1.30,0.73,1.08,1*03
1563269739197449838,66656,1563269739103132009,/gps,$GPGSV,3,2,11,16,14,285,,21,28,171,,23,11,323,,25,42,103,21,6*62
1563269739197460719,66657,1563269739113257884,/gps,$GPGSV,3,3,11,26,42,290,27,29,70,065,25,31,63,232,23,6*52
1563269739197470543,66658,1563269739118850946,/gps,$GLGSV,3,1,10,69,07,309,31,70,11,003,30,76,03,136,,77,55,135,32,1*7C
1563269739197482000,66659,1563269739121218919,/gps,$GLGSV,3,2,10,78,66,318,38,79,14,316,35,81,07,210,27,86,15,035,33,1*7B
1563269739197493136,66660,1563269739125828027,/gps,$GLGSV,3,3,10,87,74,061,36,88,51,201,32,1*71
1563269739197512145,66661,1563269739129379987,/gps,$GLGSV,3,1,10,69,07,309,26,70,11,003,,76,03,136,,77,55,135,22,3*7A
1563269739285305183,66662,1563269739210186958,/gps,$GLGSV,3,2,10,78,66,318,28,79,14,316,21,81,07,210,15,86,15,035,27,3*79
1563269739285328544,66663,1563269739214076995,/gps,$GNRMC,083538.00,A,5056.33635,N,00128.25340,W,0.043,,160719,,,A,V*01
1563269739285344289,66664,1563269739215095043,/gps,$GNVTG,,T,,M,0.043,N,0.080,K,A*32
1563269739285357601,66665,1563269739218782901,/gps,$GNGGA,083538.00,5056.33635,N,00128.25340,W,1,12,0.73,16.9,M,47.1,M,,*63
1563269739285373858,66666,1563269739232593059,/gps,$GNGSA,A,3,21,25,29,31,16,26,23,02,,,,,1.30,0.73,1.08,1*03
1563269739298275121,66667,1563269739242607116,/gps,$GNGSA,A,3,88,86,77,78,87,79,,,,,,,1.30,0.73,1.08,2*0D
1563269739298287441,66668,1563269739246318101,/gps,$GNGSA,A,3,,,,,,,,,,,,,1.30,0.73,1.08,3*0C
1563269739298296882,66669,1563269739248955011,/gps,$GNGSA,A,3,13,28,11,23,,,,,,,,,1.30,0.73,1.08,4*02
1563269739298307058,66670,1563269739251807928,/gps,$GPGSV,3,1,11,02,14,038,26,05,08,069,22,12,04,103,,14,10,229,26,1*60
1563269739656810421,66688,1563269739445499897,/gps,$GNGSA,A,3,88,86,77,78,87,79,,,,,,,1.30,0.73,1.08,2*0D
1563269739656877655,66689,1563269739446757078,/gps,$GNGSA,A,3,,,,,,,,,,,,,1.30,0.73,1.08,3*0C
1563269739656947834,66690,1563269739449933052,/gps,$GNGSA,A,3,13,28,11,23,,,,,,,,,1.30,0.73,1.08,4*02
1563269739657019740,66691,1563269739452595949,/gps,$GPGSV,3,1,11,02,14,038,26,05,08,069,22,12,04,103,,14,10,229,26,1*60
1563269739657032797,66692,1563269739463602066,/gps,$GPGSV,3,2,11,16,14,285,32,21,28,171,28,23,11,323,34,25,42,103,31,1*68
1563269739657043357,66693,1563269739466166973,/gps,$GPGSV,3,3,11,26,42,290,37,29,70,065,39,31,63,232,38,1*53
1563269739657239332,66694,1563269739468699932,/gps,$GPGSV,3,1,11,02,14,038,,05,08,069,,12,04,103,,14,10,229,,6*67
1563269739657260549,66697,1563269739534883975,/gps,$GLGSV,3,1,10,69,07,309,31,70,11,003,30,76,03,136,,77,55,135,32,1*7C
1563269740125552460,66712,1563269739701082944,/gps,$GPGSV,3,3,11,26,42,290,38,29,70,065,39,31,63,232,38,1*5C
1563269740125578797,66713,1563269739702860116,/gps,$GPGSV,3,1,11,02,14,038,,05,08,069,,12,04,103,,14,10,229,,6*67
1563269740125592493,66714,1563269739705713987,/gps,$GPGSV,3,2,11,16,14,285,,21,28,171,,23,11,323,,25,42,103,21,6*62
1563269740125603406,66715,1563269739707851886,/gps,$GPGSV,3,3,11,26,42,290,27,29,70,065,25,31,63,232,23,6*52
1563269740125613070,66716,1563269739709803104,/gps,$GLGSV,3,1,10,69,07,309,30,70,11,003,29,76,03,136,,77,55,135,32,1*75
1563269740125662448,66717,1563269739711977958,/gps,$GLGSV,3,2,10,78,66,318,38,79,14,316,35,81,07,210,27,86,15,035,33,1*7B
1563269740125672176,66718,1563269739713488101,/gps,$GLGSV,3,3,10,87,74,061,36,88,51,201,32,1*71
1563269740125682224,66719,1563269739728758096,/gps,$GLGSV,3,1,10,69,07,309,25,70,11,003,,76,03,136,,77,55,135,22,3*79
1563269740125692465,66720,1563269739788603067,/gps,$GLGSV,3,2,10,78,66,318,29,79,14,316,21,81,07,210,15,86,15,035,27,3*78
1563269740125702321,66721,1563269739792624950,/gps,$GNRMC,083538.60,A,5056.33635,N,00128.25339,W,0.022,,160719,,,A,V*0E
1563269740125712593,66722,1563269739794008016,/gps,$GNVTG,,T,,M,0.022,N,0.041,K,A*38
1563269740125721522,66723,1563269739795649051,/gps,$GNGGA,083538.60,5056.33635,N,00128.25339,W,1,12,0.73,16.9,M,47.1,M,,*6B
1563269740125730322,66724,1563269739796927928,/gps,$GNGSA,A,3,21,25,29,31,16,26,23,02,,,,,1.30,0.73,1.08,1*03
1563269740125739634,66725,1563269739798732042,/gps,$GNGSA,A,3,88,86,77,78,87,79,,,,,,,1.30,0.73,1.08,2*0D
1563269740125748947,66726,1563269739801846027,/gps,$GNGSA,A,3,,,,,,,,,,,,,1.30,0.73,1.08,3*0C
1563269740125756979,66727,1563269739807288885,/gps,$GNGSA,A,3,13,28,11,23,,,,,,,,,1.30,0.73,1.08,4*02
1563269740125766611,66728,1563269739875056982,/gps,$GPGSV,3,1,11,02,14,038,26,05,08,069,22,12,04,103,,14,10,229,26,1*60
1563269740125777044,66729,1563269739877984046,/gps,$GPGSV,3,2,11,16,14,285,32,21,28,171,28,23,11,323,34,25,42,103,31,1*68
1563269740125785684,66730,1563269739881664991,/gps,$GPGSV,3,3,11,26,42,290,37,29,70,065,39,31,63,232,38,1*53
1563269740125795732,66731,1563269739885278940,/gps,$GPGSV,3,1,11,02,14,038,,05,08,069,,12,04,103,,14,10,229,,6*67
1563269740125803925,66732,1563269739888525962,/gps,$GPGSV,3,2,11,16,14,285,,21,28,171,,23,11,323,,25,42,103,21,6*62
1563269740125812373,66733,1563269739903578042,/gps,$GPGSV,3,3,11,26,42,290,27,29,70,065,25,31,63,232,24,6*55
1563269740125821045,66734,1563269739905216932,/gps,$GLGSV,3,1,10,69,07,309,30,70,11,003,29,76,03,136,,77,55,135,32,1*75
1563269740125830070,66735,1563269739907176971,/gps,$GLGSV,3,2,10,78,66,318,38,79,14,316,35,81,07,210,27,86,15,035,33,1*7B
1563269740125838390,66736,1563269739977818965,/gps,$GLGSV,3,3,10,87,74,061,37,88,51,201,32,1*70
1563269740125847190,66737,1563269739979887008,/gps,$GLGSV,3,1,10,69,07,309,25,70,11,003,,76,03,136,,77,55,135,22,3*79
1563269740125856311,66738,1563269739982244968,/gps,$GLGSV,3,2,10,78,66,318,29,79,14,316,21,81,07,210,15,86,15,035,27,3*78
1563269740125865143,66739,1563269739987951993,/gps,$GLGSV,3,3,10,87,74,061,22,88,51,201,,3*77
1563269740125873879,66740,1563269739989816904,/gps,$GNRMC,083538.80,A,5056.33635,N,00128.25339,W,0.037,,160719,,,A,V*04
1563269740125882040,66741,1563269739990885972,/gps,$GNVTG,,T,,M,0.037,N,0.068,K,A*37
1563269740125891960,66742,1563269739992558002,/gps,$GNGGA,083538.80,5056.33635,N,00128.25339,W,1,12,0.73,16.9,M,47.1,M,,*65
1563269740125900440,66743,1563269739996093034,/gps,$GNGSA,A,3,21,25,29,31,16,26,23,02,,,,,1.30,0.73,1.08,1*03
1563269740125909625,66744,1563269740044087886,/gps,$GNGSA,A,3,88,86,77,78,87,79,,,,,,,1.30,0.73,1.08,2*0D
1563269740125918265,66745,1563269740047892093,/gps,$GNGSA,A,3,,,,,,,,,,,,,1.30,0.73,1.08,3*0C
1563269740125927705,66746,1563269740050158977,/gps,$GNGSA,A,3,13,28,11,23,,,,,,,,,1.30,0.73,1.08,4*02
1563269740125936633,66747,1563269740054547071,/gps,$GPGSV,3,1,11,02,14,038,26,05,08,069,22,12,04,103,,14,10,229,26,1*60
1563269740126013916,66748,1563269740059257030,/gps,$GPGSV,3,2,11,16,14,285,32,21,28,171,28,23,11,323,34,25,42,103,31,1*68
1563269740126025949,66749,1563269740061882019,/gps,$GPGSV,3,3,11,26,42,290,37,29,70,065,39,31,63,232,38,1*53
1563269740126035613,66750,1563269740064311981,/gps,$GPGSV,3,1,11,02,14,038,,05,08,069,,12,04,103,,14,10,229,,6*67
1563269740126045021,66751,1563269740074826002,/gps,$GPGSV,3,2,11,16,14,285,,21,28,171,,23,11,323,,25,42,103,21,6*62
1563269740331048443,66753,1563269740130708932,/gps,$GLGSV,3,1,10,69,07,309,30,70,11,003,29,76,03,136,,77,55,135,32,1*75
1563269740337947218,66758,1563269740142687082,/gps,$GLGSV,3,3,10,87,74,061,21,88,51,201,,3*74
1563269740354729389,66759,1563269740149854898,/gps,$GNRMC,083539.00,A,5056.33635,N,00128.25339,W,0.013,,160719,,,A,V*0B
1563269740355760114,66760,1563269740153513908,/gps,$GNVTG,,T,,M,0.013,N,0.025,K,A*38
1563269740362809199,66763,1563269740218930006,/gps,$GNGSA,A,3,88,86,77,78,87,79,,,,,,,1.30,0.73,1.08,2*0D
1563269740362868529,66764,1563269740221396923,/gps,$GNGSA,A,3,,,,,,,,,,,,,1.30,0.73,1.08,3*0C
1563269740362901298,66765,1563269740224649906,/gps,$GNGSA,A,3,13,28,11,23,,,,,,,,,1.30,0.73,1.08,4*02
1563269740362913139,66766,1563269740228785037,/gps,$GPGSV,3,1,11,02,14,038,26,05,08,069,22,12,04,103,,14,10,229,26,1*60
1563269740362956084,66767,1563269740235100984,/gps,$GPGSV,3,2,11,16,14,285,32,21,28,171,28,23,11,323,34,25,42,103,30,1*69
1563269740362987637,66768,1563269740237653017,/gps,$GPGSV,3,3,11,26,42,290,37,29,70,065,39,31,63,232,38,1*53
1563269740379768335,66769,1563269740312300920,/gps,$GPGSV,3,1,11,02,14,038,,05,08,069,,12,04,103,,14,10,229,,6*67
1563269740379869875,66770,1563269740318973064,/gps,$GPGSV,3,2,11,16,14,285,,21,28,171,,23,11,323,,25,42,103,21,6*62
1563269740379892628,66771,1563269740326539993,/gps,$GPGSV,3,3,11,26,42,290,27,29,70,065,26,31,63,232,23,6*51
1563269740379921557,66772,1563269740333980083,/gps,$GLGSV,3,1,10,69,07,309,30,70,11,003,29,76,03,136,,77,55,135,32,1*75
1563269740379938230,66773,1563269740350682973,/gps,$GLGSV,3,2,10,78,66,318,38,79,14,316,34,81,07,210,27,86,15,035,33,1*7A
1563269740660118333,66793,1563269740557784080,/gps,$GLGSV,3,1,10,69,07,309,31,70,11,003,29,76,03,136,,77,55,135,32,1*74
1563269740660133278,66795,1563269740563080072,/gps,$GLGSV,3,3,10,87,74,061,37,88,51,201,32,1*70
1563269740660144958,66796,1563269740566334009,/gps,$GLGSV,3,1,10,69,07,309,25,70,11,003,,76,03,136,,77,55,135,21,3*7A
1563269740660155710,66797,1563269740569375038,/gps,$GLGSV,3,2,10,78,66,318,28,79,14,316,21,81,07,210,15,86,15,035,27,3*79
1563269740660168383,66798,1563269740580837011,/gps,$GNRMC,083539.40,A,5056.33635,N,00128.25339,W,0.018,,160719,,,A,V*04
1563269740660178975,66799,1563269740583949089,/gps,$GNVTG,,T,,M,0.018,N,0.034,K,A*33
1563269740660189344,66800,1563269740591618061,/gps,$GNGGA,083539.40,5056.33635,N,00128.25339,W,1,12,0.73,16.9,M,47.1,M,,*68
1563269740828901223,66801,1563269740651331901,/gps,$GNGSA,A,3,21,25,29,31,16,26,23,02,,,,,1.30,0.73,1.08,1*03
1563269740828914311,66802,1563269740656810998,/gps,$GNGSA,A,3,88,86,77,78,87,79,,,,,,,1.30,0.73,1.08,2*0D
1563269740828959849,66803,1563269740660201072,/gps,$GNGSA,A,3,,,,,,,,,,,,,1.30,0.73,1.08,3*0C
1563269740828969929,66804,1563269740662843942,/gps,$GNGSA,A,3,13,28,11,23,,,,,,,,,1.30,0.73,1.08,4*02
1563269740828979850,66805,1563269740665766954,/gps,$GPGSV,3,1,11,02,14,038,26,05,08,069,22,12,04,103,,14,10,229,26,1*60
1563269740828989834,66806,1563269740670094013,/gps,$GPGSV,3,2,11,16,14,285,32,21,28,171,28,23,11,323,34,25,42,103,30,1*69
1563269740829000554,66807,1563269740684204101,/gps,$GPGSV,3,3,11,26,42,290,37,29,70,065,39,31,63,232,38,1*53
1563269740829010187,66808,1563269740700706005,/gps,$GPGSV,3,1,11,02,14,038,,05,08,069,,12,04,103,,14,10,229,,6*67
1563269740829020555,66809,1563269740703566074,/gps,$GPGSV,3,2,11,16,14,285,,21,28,171,,23,11,323,,25,42,103,21,6*62
1563269740829029419,66810,1563269740736556053,/gps,$GPGSV,3,3,11,26,42,290,27,29,70,065,26,31,63,232,23,6*51
1563269740829037932,66811,1563269740743235111,/gps,$GLGSV,3,1,10,69,07,309,31,70,11,003,29,76,03,136,,77,55,135,32,1*74
1563269740843958979,66812,1563269740744957923,/gps,$GLGSV,3,2,10,78,66,318,38,79,14,316,35,81,07,210,27,86,15,035,33,1*7B
1563269740843986692,66813,1563269740746331930,/gps,$GLGSV,3,3,10,87,74,061,37,88,51,201,32,1*70
1563269740843997444,66814,1563269740748802900,/gps,$GLGSV,3,1,10,69,07,309,26,70,11,003,,76,03,136,,77,55,135,22,3*7A
1563269740844007685,66815,1563269740763942956,/gps,$GLGSV,3,2,10,78,66,318,28,79,14,316,21,81,07,210,15,86,15,035,27,3*79
1563269740844019429,66816,1563269740778223037,/gps,$GLGSV,3,3,10,87,74,061,21,88,51,201,,3*74
1563269740844034374,66817,1563269740814675092,/gps,$GNRMC,083539.60,A,5056.33635,N,00128.25338,W,0.048,,160719,,,A,V*02
1563269740844044870,66819,1563269740829977035,/gps,$GNGGA,083539.60,5056.33635,N,00128.25338,W,1,12,0.73,16.9,M,47.1,M,,*6B
1563269741236044411,66820,1563269740841949939,/gps,$GNGSA,A,3,21,25,29,31,16,26,23,02,,,,,1.30,0.73,1.08,1*03
1563269741236093373,66821,1563269740848782062,/gps,$GNGSA,A,3,88,86,77,78,87,79,,,,,,,1.30,0.73,1.08,2*0D
1563269741236316709,66822,1563269740853077888,/gps,$GNGSA,A,3,,,,,,,,,,,,,1.30,0.73,1.08,3*0C
1563269741236364934,66823,1563269740857880115,/gps,$GNGSA,A,3,13,28,11,23,,,,,,,,,1.30,0.73,1.08,4*02
1563269741236376999,66824,1563269740860227108,/gps,$GPGSV,3,1,11,02,14,038,26,05,08,069,22,12,04,103,,14,10,229,25,1*63
1563269741236393319,66825,1563269740862822055,/gps,$GPGSV,3,2,11,16,14,285,32,21,28,171,27,23,11,323,34,25,42,103,30,1*66
1563269741236407176,66826,1563269740901077032,/gps,$GPGSV,3,3,11,26,42,290,37,29,70,065,39,31,63,232,38,1*53
1563269741236424073,66827,1563269740914771080,/gps,$GPGSV,3,1,11,02,14,038,,05,08,069,,12,04,103,,14,10,229,,6*67
1563269741236433897,66828,1563269740916933059,/gps,$GPGSV,3,2,11,16,14,285,,21,28,171,,23,11,323,,25,42,103,21,6*62
1563269741236607791,66829,1563269740919173955,/gps,$GPGSV,3,3,11,26,42,290,27,29,70,065,26,31,63,232,23,6*51
1563269741239367154,66830,1563269740921722888,/gps,$GLGSV,3,1,10,69,07,309,31,70,11,003,30,76,03,136,,77,55,135,32,1*7C
1563269741239758752,66831,1563269740938440084,/gps,$GLGSV,3,2,10,78,66,318,38,79,14,316,35,81,07,210,27,86,15,035,33,1*7B
1563269741239798498,66832,1563269740949094057,/gps,$GLGSV,3,3,10,87,74,061,37,88,51,201,32,1*70
1563269741258359100,66833,1563269740954104900,/gps,$GLGSV,3,1,10,69,07,309,25,70,11,003,,76,03,136,,77,55,135,22,3*79
1563269741258833325,66834,1563269740986820936,/gps,$GLGSV,3,2,10,78,66,318,28,79,14,316,21,81,07,210,15,86,15,035,27,3*79
1563269741258860686,66835,1563269740991846084,/gps,$GLGSV,3,3,10,87,74,061,21,88,51,201,,3*74
1563269741258872462,66836,1563269740998145103,/gps,$GNRMC,083539.80,A,5056.33635,N,00128.25338,W,0.049,,160719,,,A,V*0D
1563269741258915984,66837,1563269741001705884,/gps,$GNVTG,,T,,M,0.049,N,0.091,K,A*38
1563269741258967602,66838,1563269741004069089,/gps,$GNGGA,083539.80,5056.33635,N,00128.25338,W,1,12,0.73,16.9,M,47.1,M,,*65
1563269741258978610,66839,1563269741011735916,/gps,$GNGSA,A,3,21,25,29,31,16,26,23,02,,,,,1.30,0.73,1.08,1*03
1563269741258990994,66840,1563269741014126062,/gps,$GNGSA,A,3,88,86,77,78,87,79,,,,,,,1.30,0.73,1.08,2*0D
1563269741259001331,66841,1563269741016071081,/gps,$GNGSA,A,3,,,,,,,,,,,,,1.30,0.73,1.08,3*0C
1563269741259011603,66842,1563269741019429922,/gps,$GNGSA,A,3,13,28,11,23,,,,,,,,,1.30,0.73,1.08,4*02
1563269741259021044,66843,1563269741072870016,/gps,$GPGSV,3,1,11,02,14,038,26,05,08,069,23,12,04,103,,14,10,229,25,1*62
1563269741259029844,66844,1563269741075701951,/gps,$GPGSV,3,2,11,16,14,285,32,21,28,171,27,23,11,323,34,25,42,103,30,1*66
1563269741259038996,66845,1563269741078142881,/gps,$GPGSV,3,3,11,26,42,290,37,29,70,065,39,31,63,232,38,1*53
1563269741259639658,66846,1563269741081656932,/gps,$GPGSV,3,1,11,02,14,038,,05,08,069,,12,04,103,,14,10,229,,6*67
1563269741259812624,66847,1563269741086040019,/gps,$GPGSV,3,2,11,16,14,285,,21,28,171,,23,11,323,,25,42,103,21,6*62
1563269741259824176,66848,1563269741088758945,/gps,$GPGSV,3,3,11,26,42,290,27,29,70,065,26,31,63,232,23,6*51
1563269741259891443,66849,1563269741094130039,/gps,$GLGSV,3,1,10,69,07,309,31,70,11,003,30,76,03,136,,77,55,135,32,1*7C
1563269741259909075,66850,1563269741158365964,/gps,$GLGSV,3,2,10,78,66,318,38,79,14,316,35,81,07,210,27,86,15,035,33,1*7B
1563269741260066745,66851,1563269741161669969,/gps,$GLGSV,3,3,10,87,74,061,37,88,51,201,32,1*70
1563269741260115323,66852,1563269741165043115,/gps,$GLGSV,3,1,10,69,07,309,25,70,11,003,,76,03,136,,77,55,135,22,3*79
1563269741260125755,66853,1563269741168169021,/gps,$GLGSV,3,2,10,78,66,318,28,79,14,316,21,81,07,210,14,86,15,035,27,3*78
1563269741260152412,66854,1563269741170548915,/gps,$GLGSV,3,3,10,87,74,061,21,88,51,201,,3*74
1563269741260244447,66855,1563269741173187017,/gps,$GNRMC,083540.00,A,5056.33635,N,00128.25338,W,0.024,,160719,,,A,V*00
1563269741260255968,66856,1563269741175214052,/gps,$GNVTG,,T,,M,0.024,N,0.044,K,A*3B
1563269741260267328,66857,1563269741178313016,/gps,$GNGGA,083540.00,5056.33635,N,00128.25338,W,1,12,0.73,16.9,M,47.1,M,,*63
1563269741260277889,66858,1563269741191375017,/gps,$GNGSA,A,3,21,25,29,31,16,26,23,02,,,,,1.30,0.73,1.08,1*03
1563269741409222658,66859,1563269741244976997,/gps,$GNGSA,A,3,88,86,77,78,87,79,,,,,,,1.30,0.73,1.08,2*0D
1563269741409256643,66860,1563269741247380018,/gps,$GNGSA,A,3,,,,,,,,,,,,,1.30,0.73,1.08,3*0C
1563269741409281028,66861,1563269741254791021,/gps,$GNGSA,A,3,13,28,11,23,,,,,,,,,1.30,0.73,1.08,4*02
1563269741409302757,66862,1563269741259273052,/gps,$GPGSV,3,1,11,02,14,038,26,05,08,069,23,12,04,103,,14,10,229,26,1*61
1563269741409320646,66863,1563269741277111053,/gps,$GPGSV,3,2,11,16,14,285,32,21,28,171,27,23,11,323,34,25,42,103,30,1*66
1563269741411999302,66864,1563269741281898975,/gps,$GPGSV,3,3,11,26,42,290,37,29,70,065,39,31,63,232,38,1*53
1563269741420169867,66865,1563269741286319017,/gps,$GPGSV,3,1,11,02,14,038,,05,08,069,,12,04,103,,14,10,229,,6*67
1563269741420193068,66866,1563269741289793014,/gps,$GPGSV,3,2,11,16,14,285,,21,28,171,,23,11,323,,25,42,103,21,6*62
1563269741420204908,66868,1563269741331041097,/gps,$GLGSV,3,1,10,69,07,309,31,70,11,003,30,76,03,136,,77,55,135,32,1*7C
1563269741420216173,66869,1563269741333534955,/gps,$GLGSV,3,2,10,78,66,318,38,79,14,316,34,81,07,210,27,86,15,035,33,1*7A
1563269741420227437,66870,1563269741336455106,/gps,$GLGSV,3,3,10,87,74,061,37,88,51,201,32,1*70
1563269741420236974,66871,1563269741338953971,/gps,$GLGSV,3,1,10,69,07,309,25,70,11,003,,76,03,136,,77,55,135,22,3*79
1563269741420246606,66872,1563269741341768026,/gps,$GLGSV,3,2,10,78,66,318,28,79,14,316,21,81,07,210,14,86,15,035,27,3*78
1563269741420255566,66873,1563269741344028949,/gps,$GLGSV,3,3,10,87,74,061,21,88,51,201,,3*74
1563269741420264975,66874,1563269741346107006,/gps,$GNTXT,01,01,00,txbuf alloc*61
1563269741456955539,66877,1563269741417861938,/gps,$GNGGA,083540.20,5056.33636,N,00128.25338,W,1,12,0.73,16.9,M,47.1,M,,*62
1563269741456966068,66878,1563269741424884080,/gps,$GNGSA,A,3,21,25,29,31,16,26,23,02,,,,,1.30,0.73,1.08,1*03
1563269741457017366,66879,1563269741426712989,/gps,$GNGSA,A,3,88,86,77,78,87,79,,,,,,,1.30,0.73,1.08,2*0D
1563269741457028406,66880,1563269741430253982,/gps,$GNGSA,A,3,,,,,,,,,,,,,1.30,0.73,1.08,3*0C
1563269741457039446,66881,1563269741435128927,/gps,$GNGSA,A,3,13,28,11,23,,,,,,,,,1.30,0.73,1.08,4*02
1563269741457049111,66882,1563269741438225030,/gps,$GPGSV,3,1,11,02,14,038,27,05,08,069,23,12,04,103,,14,10,229,26,1*60
1563269741457059959,66883,1563269741440689086,/gps,$GPGSV,3,2,11,16,14,285,32,21,28,171,27,23,11,323,33,25,42,103,30,1*61
1563269742849089823,66990,1563269742614742994,/gps,$GNVTG,,T,,M,0.061,N,0.114,K,A*3E
1563269742849135424,66991,1563269742616935968,/gps,$GNGGA,083541.40,5056.33636,N,00128.25338,W,1,12,0.73,16.8,M,47.1,M,,*64
1563269742849191586,66992,1563269742618642091,/gps,$GNGSA,A,3,21,25,29,31,16,26,23,02,,,,,1.30,0.73,1.08,1*03
1563269742849209891,66993,1563269742629092931,/gps,$GNGSA,A,3,88,86,77,78,87,79,,,,,,,1.30,0.73,1.08,2*0D
1563269742849847098,66994,1563269742631591081,/gps,$GNGSA,A,3,,,,,,,,,,,,,1.30,0.73,1.08,3*0C
1563269742849896316,66995,1563269742632966995,/gps,$GNGSA,A,3,13,28,11,23,,,,,,,,,1.30,0.73,1.08,4*02
1563269742849973406,66996,1563269742634438991,/gps,$GPGSV,3,1,11,02,14,038,26,05,08,069,23,12,04,103,,14,10,229,25,1*62
1563269742850378765,66997,1563269742639003992,/gps,$GPGSV,3,2,11,16,14,285,32,21,28,171,26,23,11,323,33,25,42,103,30,1*60
1563269743074751874,67018,1563269742879168987,/gps,$GPGSV,3,1,11,02,14,038,,05,08,069,,12,04,103,,14,10,229,,6*67
1563269743074765090,67019,1563269742881633996,/gps,$GPGSV,3,2,11,16,14,285,,21,28,171,,23,11,323,,25,42,103,21,6*62
1563269743074852517,67020,1563269742886430978,/gps,$GPGSV,3,3,11,26,42,290,27,29,70,065,25,31,63,232,22,6*53
1563269743074866886,67021,1563269742889103889,/gps,$GLGSV,3,1,10,69,07,309,31,70,11,003,30,76,03,136,,77,55,135,32,1*7C
1563269743077694635,67024,1563269742962701082,/gps,$GLGSV,3,1,10,69,07,309,25,70,11,003,,76,03,136,,77,55,135,21,3*7A
1563269743077722796,67025,1563269742965850114,/gps,$GLGSV,3,2,10,78,66,318,28,79,14,316,21,81,07,210,12,86,15,035,27,3*7E
1563269743077738221,67027,1563269742971710920,/gps,$GNVTG,,T,,M,0.054,N,0.099,K,A*3C
1563269743077749709,67028,1563269742984857082,/gps,$GNGGA,083541.80,5056.33636,N,00128.25337,W,1,12,0.73,16.8,M,47.1,M,,*67
1563269743077759822,67029,1563269742995615005,/gps,$GNGSA,A,3,21,25,29,31,16,26,23,02,,,,,1.30,0.73,1.08,1*03
1563269743077769230,67030,1563269743000411987,/gps,$GNGSA,A,3,88,86,77,78,87,79,,,,,,,1.30,0.73,1.08,2*0D
1563269743091759364,67031,1563269743043926000,/gps,$GNGSA,A,3,,,,,,,,,,,,,1.30,0.73,1.08,3*0C
1563269743096317000,67032,1563269743047600984,/gps,$GNGSA,A,3,13,28,11,23,,,,,,,,,1.30,0.73,1.08,4*02
1563269743096336744,67033,1563269743049751996,/gps,$GPGSV,3,1,11,02,14,038,26,05,08,069,23,12,04,103,,14,10,229,25,1*62
1563269743096348777,67034,1563269743053821086,/gps,$GPGSV,3,2,11,16,14,285,32,21,28,171,27,23,11,323,33,25,42,103,30,1*61
1563269743096389770,67035,1563269743059695005,/gps,$GPGSV,3,3,11,26,42,290,37,29,70,065,40,31,63,232,38,1*5D
1563269743096540400,67036,1563269743062089920,/gps,$GPGSV,3,1,11,02,14,038,,05,08,069,,12,04,103,,14,10,229,,6*67
1563269743096552144,67037,1563269743064659118,/gps,$GPGSV,3,2,11,16,14,285,,21,28,171,,23,11,323,,25,42,103,21,6*62
1563269743096562768,67038,1563269743071124076,/gps,$GPGSV,3,3,11,26,42,290,27,29,70,065,25,31,63,232,22,6*53
1563269743169365189,67039,1563269743130238056,/gps,$GLGSV,3,1,10,69,07,309,31,70,11,003,30,76,03,136,,77,55,135,32,1*7C
1563269743169378758,67040,1563269743136557102,/gps,$GLGSV,3,2,10,78,66,318,38,79,14,316,34,81,07,210,27,86,15,035,32,1*7B
1563269743169390342,67041,1563269743138529062,/gps,$GLGSV,3,3,10,87,74,061,37,88,51,201,33,1*71
1563269743169403367,67042,1563269743140873908,/gps,$GLGSV,3,1,10,69,07,309,25,70,11,003,,76,03,136,,77,55,135,21,3*7A
1563269743169413159,67043,1563269743148478031,/gps,$GLGSV,3,2,10,78,66,318,29,79,14,316,21,81,07,210,12,86,15,035,28,3*70
1563269743169423079,67044,1563269743150068998,/gps,$GLGSV,3,3,10,87,74,061,22,88,51,201,,3*77
1563269743169433192,67045,1563269743154155969,/gps,$GAGSV,3,1,10,02,64,299,36,07,09,313,31,08,03,266,16,11,59,081,32,7*70
1563269743257175989,67047,1563269743215888977,/gps,$GNVTG,,T,,M,0.040,N,0.075,K,A*3B
1563269743257219638,67048,1563269743220537900,/gps,$GNGGA,083542.00,5056.33636,N,00128.25337,W,1,12,0.73,16.8,M,47.1,M,,*6C
1563269743257233943,67049,1563269743222156047,/gps,$GNGSA,A,3,21,25,29,31,16,26,23,02,,,,,1.30,0.73,1.08,1*03
1563269743268211457,67050,1563269743223895072,/gps,$GNGSA,A,3,88,86,77,78,87,79,,,,,,,1.30,0.73,1.08,2*0D
1563269743380488350,67051,1563269743225466966,/gps,$GNGSA,A,3,,,,,,,,,,,,,1.30,0.73,1.08,3*0C
1563269743380517727,67052,1563269743231650114,/gps,$GNGSA,A,3,13,28,11,23,,,,,,,,,1.30,0.73,1.08,4*02
1563269743380530496,67053,1563269743235215902,/gps,$GPGSV,3,1,11,02,14,038,26,05,08,069,23,12,04,103,,14,10,229,25,1*62
1563269743380543072,67054,1563269743237689018,/gps,$GPGSV,3,2,11,16,14,285,32,21,28,171,27,23,11,323,33,25,42,103,30,1*61
1563269743380554561,67055,1563269743300772905,/gps,$GPGSV,3,3,11,26,42,290,37,29,70,065,39,31,63,232,38,1*53
1563269743380564705,67056,1563269743302589893,/gps,$GPGSV,3,1,11,02,14,038,,05,08,069,,12,04,103,,14,10,229,,6*67
1563269743380574978,67057,1563269743304622888,/gps,$GPGSV,3,2,11,16,14,285,,21,28,171,,23,11,323,,25,42,103,21,6*62
1563269743380587970,67058,1563269743306478977,/gps,$GPGSV,3,3,11,26,42,290,27,29,70,065,25,31,63,232,23,6*52
1563269743380598370,67059,1563269743308856964,/gps,$GLGSV,3,1,10,69,07,309,31,70,11,003,30,76,03,136,,77,55,135,32,1*7C
1563269743383673649,67060,1563269743313647985,/gps,$GLGSV,3,2,10,78,66,318,38,79,14,316,34,81,07,210,27,86,15,035,31,1*78
1563269743383771156,67061,1563269743320044040,/gps,$GLGSV,3,3,10,87,74,061,37,88,51,201,33,1*71
1563269743387722306,67062,1563269743324258089,/gps,$GLGSV,3,1,10,69,07,309,25,70,11,003,,76,03,136,,77,55,135,21,3*7A
1563269743429028781,67063,1563269743386826038,/gps,$GLGSV,3,2,10,78,66,318,29,79,14,316,21,81,07,210,12,86,15,035,28,3*70
1563269743429039309,67064,1563269743390173912,/gps,$GLGSV,3,3,10,87,74,061,22,88,51,201,,3*77
1563269743429049613,67065,1563269743391340970,/gps,$GNTXT,01,01,00,txbuf alloc*61
1563269743429059854,67066,1563269743395843029,/gps,$GNRMC,083542.20,A,5056.33636,N,00128.25337,W,0.038,,160719,,,A,V*01
1563269743429069326,67067,1563269743398530960,/gps,$GNVTG,,T,,M,0.038,N,0.071,K,A*30
1563269743429078734,67068,1563269743402160882,/gps,$GNGGA,083542.20,5056.33636,N,00128.25337,W,1,12,0.73,16.8,M,47.1,M,,*6E
1563269743429087567,67069,1563269743405860900,/gps,$GNGSA,A,3,21,25,29,31,16,26,23,02,,,,,1.30,0.73,1.08,1*03
1563269743429096943,67070,1563269743415005922,/gps,$GNGSA,A,3,88,86,77,78,87,79,,,,,,,1.30,0.73,1.08,2*0D
1563269743429105743,67071,1563269743417423963,/gps,$GNGSA,A,3,,,,,,,,,,,,,1.30,0.73,1.08,3*0C
1563269743494409271,67073,1563269743473953962,/gps,$GPGSV,3,1,11,02,14,038,27,05,08,069,23,12,04,103,,14,10,229,25,1*63
1563269743494472185,67074,1563269743475439071,/gps,$GPGSV,3,2,11,16,14,285,32,21,28,171,27,23,11,323,34,25,42,103,30,1*66
1563269743494937386,67075,1563269743477758884,/gps,$GPGSV,3,3,11,26,42,290,37,29,70,065,39,31,63,232,38,1*53
1563269743494956939,67076,1563269743482127904,/gps,$GPGSV,3,1,11,02,14,038,,05,08,069,,12,04,103,,14,10,229,,6*67
1563269743494968683,67077,1563269743485950946,/gps,$GPGSV,3,2,11,16,14,285,,21,28,171,,23,11,323,,25,42,103,20,6*63
1563269743537896144,67078,1563269743498234987,/gps,$GPGSV,3,3,11,26,42,290,27,29,70,065,25,31,63,232,23,6*52
1563269743537941361,67079,1563269743513350963,/gps,$GLGSV,3,1,10,69,07,309,31,70,11,003,30,76,03,136,,77,55,135,32,1*7C
1563269743592036967,67080,1563269743558793067,/gps,$GLGSV,3,2,10,78,66,318,38,79,14,316,34,81,07,210,26,86,14,035,32,1*7B
1563269743592059272,67081,1563269743562634944,/gps,$GLGSV,3,3,10,87,74,061,37,88,51,201,33,1*71
1563269743592081064,67082,1563269743564846992,/gps,$GLGSV,3,1,10,69,07,309,25,70,11,003,,76,03,136,,77,55,135,21,3*7A
1563269743592098633,67083,1563269743567259073,/gps,$GLGSV,3,2,10,78,66,318,29,79,14,316,21,81,07,210,12,86,14,035,28,3*71
1563269743592114218,67084,1563269743569511890,/gps,$GLGSV,3,3,10,87,74,061,21,88,51,201,,3*74
1563269743592123626,67085,1563269743572313070,/gps,$GNRMC,083542.40,A,5056.33637,N,00128.25337,W,0.021,,160719,,,A,V*0E
1563269743592136778,67086,1563269743576373100,/gps,$GNVTG,,T,,M,0.021,N,0.039,K,A*34
1563269743680339240,67087,1563269743584692001,/gps,$GNGGA,083542.40,5056.33637,N,00128.25337,W,1,12,0.73,16.8,M,47.1,M,,*69
1563269743680476717,67088,1563269743643799066,/gps,$GNGSA,A,3,21,25,29,31,16,26,23,02,,,,,1.30,0.73,1.08,1*03
1563269743680566960,67089,1563269743646559000,/gps,$GNGSA,A,3,88,86,77,78,87,79,,,,,,,1.30,0.73,1.08,2*0D
1563269743680594385,67090,1563269743648190975,/gps,$GNGSA,A,3,,,,,,,,,,,,,1.30,0.73,1.08,3*0C
1563269743680609010,67091,1563269743650238037,/gps,$GNGSA,A,3,13,28,11,23,,,,,,,,,1.30,0.73,1.08,4*02
1563269743680620210,67092,1563269743652807950,/gps,$GPGSV,3,1,11,02,14,038,27,05,08,069,23,12,04,103,,14,10,229,25,1*63
1563269743680660340,67093,1563269743655961990,/gps,$GPGSV,3,2,11,16,14,285,32,21,28,171,27,23,11,323,34,25,42,103,30,1*66
1563269743680906108,67094,1563269743658150911,/gps,$GPGSV,3,3,11,26,42,290,37,29,70,065,39,31,63,232,38,1*53
1563269743680934525,67095,1563269743660664081,/gps,$GPGSV,3,1,11,02,14,038,,05,08,069,,12,04,103,,14,10,229,,6*67
1563269743737979197,67096,1563269743730231046,/gps,$GPGSV,3,2,11,16,14,285,,21,28,171,,23,11,323,,25,42,103,21,6*62
1563269743738080832,67097,1563269743734734058,/gps,$GPGSV,3,3,11,26,42,290,27,29,70,065,25,31,63,232,23,6*52
1563269743749678657,67098,1563269743746001005,/gps,$GLGSV,3,1,10,69,07,309,31,70,11,003,30,76,03,136,,77,55,135,32,1*7C
1563269743785538664,67099,1563269743760003089,/gps,$GLGSV,3,2,10,78,66,318,38,79,14,316,34,81,07,210,26,86,14,035,32,1*7B
1563269743785568617,67100,1563269743761873960,/gps,$GLGSV,3,3,10,87,74,061,37,88,51,201,33,1*71
1563269743785626891,67101,1563269743772615909,/gps,$GLGSV,3,1,10,69,07,309,25,70,11,003,,76,03,136,,77,55,135,21,3*7A
1563269743785640075,67102,1563269743775023937,/gps,$GLGSV,3,2,10,78,66,318,29,79,14,316,20,81,07,210,12,86,14,035,27,3*7F
1563269743785650668,67103,1563269743778310060,/gps,$GNRMC,083542.60,A,5056.33637,N,00128.25338,W,0.028,,160719,,,A,V*0A
1563269743817316476,67104,1563269743815140008,/gps,$GNVTG,,T,,M,0.028,N,0.051,K,A*33
1563269743824596673,67105,1563269743822551012,/gps,$GNGGA,083542.60,5056.33637,N,00128.25338,W,1,12,0.73,16.8,M,47.1,M,,*64
1563269743836699092,67106,1563269743832745075,/gps,$GNGSA,A,3,21,25,29,31,16,26,23,02,,,,,1.30,0.73,1.08,1*03
1563269743839256304,67107,1563269743838108062,/gps,$GNGSA,A,3,88,86,77,78,87,79,,,,,,,1.30,0.73,1.08,2*0D
1563269743845849212,67108,1563269743842379093,/gps,$GNGSA,A,3,,,,,,,,,,,,,1.30,0.73,1.08,3*0C
1563269743899598693,67109,1563269743850136995,/gps,$GNGSA,A,3,13,28,11,23,,,,,,,,,1.30,0.73,1.08,4*02
1563269743901112924,67110,1563269743891331911,/gps,$GPGSV,3,1,11,02,14,038,27,05,08,069,24,12,04,103,,14,10,229,24,1*65
1563269743909925624,67111,1563269743901053905,/gps,$GPGSV,3,2,11,16,14,285,32,21,28,171,27,23,11,323,34,25,42,103,30,1*66
1563269743926412808,67112,1563269743909209012,/gps,$GPGSV,3,3,11,26,42,290,37,29,70,065,40,31,63,232,38,1*5D
1563269743927325160,67113,1563269743913144111,/gps,$GPGSV,3,1,11,02,14,038,,05,08,069,,12,04,103,,14,10,229,,6*67
1563269743931428252,67114,1563269743929599046,/gps,$GPGSV,3,2,11,16,14,285,,21,28,171,,23,11,323,,25,42,103,21,6*62
1563269743936607541,67115,1563269743932848930,/gps,$GPGSV,3,3,11,26,42,290,27,29,70,065,25,31,63,232,22,6*53
1563269743974068790,67116,1563269743951046943,/gps,$GLGSV,3,1,10,69,07,309,31,70,11,003,29,76,03,136,,77,55,135,32,1*74
1563269743974132632,67117,1563269743955291032,/gps,$GLGSV,3,2,10,78,66,318,38,79,14,316,34,81,07,210,26,86,14,035,32,1*7B
1563269743974183194,67118,1563269743957933902,/gps,$GLGSV,3,3,10,87,74,061,36,88,51,201,32,1*71
1563269743974236188,67119,1563269743961824893,/gps,$GLGSV,3,1,10,69,07,309,25,70,11,003,,76,03,136,,77,55,135,21,3*7A
1563269743996970188,67120,1563269743990684032,/gps,$GLGSV,3,2,10,78,66,318,29,79,14,316,21,81,07,210,12,86,14,035,28,3*71
1563269744004273170,67121,1563269744000803947,/gps,$GLGSV,3,3,10,87,74,061,22,88,51,201,,3*77
1563269744010676536,67122,1563269744005903005,/gps,$GNRMC,083542.80,A,5056.33637,N,00128.25338,W,0.018,,160719,,,A,V*07
1563269744016635374,67123,1563269744013124942,/gps,$GNVTG,,T,,M,0.018,N,0.033,K,A*34
1563269744023855537,67124,1563269744017971992,/gps,$GNGGA,083542.80,5056.33637,N,00128.25338,W,1,12,0.73,16.8,M,47.1,M,,*6A
1563269744027253067,67125,1563269744025284051,/gps,$GNGSA,A,3,21,25,29,31,16,26,23,02,,,,,1.30,0.73,1.08,1*03
1563269744030032430,67126,1563269744028562068,/gps,$GNGSA,A,3,88,86,77,78,87,79,,,,,,,1.30,0.73,1.08,2*0D
1563269744040456645,67127,1563269744031205892,/gps,$GNGSA,A,3,,,,,,,,,,,,,1.30,0.73,1.08,3*0C
1563269744061128202,67128,1563269744034303903,/gps,$GNGSA,A,3,13,28,11,23,,,,,,,,,1.30,0.73,1.08,4*02
1563269744093503540,67129,1563269744072230100,/gps,$GPGSV,3,1,11,02,14,038,27,05,08,069,24,12,04,103,,14,10,229,24,1*65
1563269744093627897,67130,1563269744076019048,/gps,$GPGSV,3,2,11,16,14,285,32,21,28,171,27,23,11,323,34,25,42,103,30,1*66
1563269744093642457,67131,1563269744078690052,/gps,$GPGSV,3,3,11,26,42,290,38,29,70,065,40,31,63,232,38,1*52
1563269744093740509,67132,1563269744081732034,/gps,$GPGSV,3,1,11,02,14,038,,05,08,069,,12,04,103,,14,10,229,,6*67
1563269744093758430,67133,1563269744084203004,/gps,$GPGSV,3,2,11,16,14,285,,21,28,171,,23,11,323,,25,42,103,21,6*62
1563269744093771518,67134,1563269744088542938,/gps,$GPGSV,3,3,11,26,42,290,28,29,70,065,25,31,63,232,23,6*5D
1563269744093894242,67135,1563269744092371940,/gps,$GLGSV,3,1,10,69,07,309,31,70,11,003,29,76,03,136,,77,55,135,32,1*74
1563269744102316209,67136,1563269744095647096,/gps,$GLGSV,3,2,10,78,66,318,38,79,14,316,34,81,07,210,26,86,14,035,32,1*7B
1563269744184675260,67137,1563269744158046960,/gps,$GLGSV,3,3,10,87,74,061,36,88,51,201,32,1*71
1563269744184693629,67138,1563269744165218114,/gps,$GLGSV,3,1,10,69,07,309,26,70,11,003,,76,03,136,,77,55,135,21,3*79
1563269744184704702,67139,1563269744167915105,/gps,$GLGSV,3,2,10,78,66,318,29,79,14,316,21,81,07,210,12,86,14,035,28,3*71
1563269744184716286,67140,1563269744169852972,/gps,$GLGSV,3,3,10,87,74,061,21,88,51,201,,3*74
1563269744184725886,67141,1563269744174271106,/gps,$GNRMC,083543.00,A,5056.33637,N,00128.25338,W,0.038,,160719,,,A,V*0C
1563269744184740479,67142,1563269744176889896,/gps,$GNVTG,,T,,M,0.038,N,0.070,K,A*31
1563269744184751039,67143,1563269744180448055,/gps,$GNGGA,083543.00,5056.33637,N,00128.25338,W,1,12,0.73,16.8,M,47.1,M,,*63
1563269744187141941,67144,1563269744186163902,/gps,$GNGSA,A,3,21,25,29,31,16,26,23,02,,,,,1.30,0.73,1.08,1*03
1563269744253015569,67146,1563269744244810104,/gps,$GNGSA,A,3,,,,,,,,,,,,,1.30,0.73,1.08,3*0C
1563269744253822030,67147,1563269744247133970,/gps,$GNGSA,A,3,13,28,11,23,,,,,,,,,1.30,0.73,1.08,4*02
1563269744253866032,67148,1563269744249739885,/gps,$GPGSV,3,1,11,02,14,038,27,05,08,069,24,12,04,103,,14,10,229,24,1*65
1563269744254000597,67149,1563269744252325057,/gps,$GPGSV,3,2,11,16,14,285,32,21,28,171,28,23,11,323,34,25,42,103,31,1*68
1563269744260356761,67150,1563269744254554986,/gps,$GPGSV,3,3,11,26,42,290,38,29,70,065,41,31,63,232,38,1*53
1563269744260368601,67151,1563269744257263898,/gps,$GPGSV,3,1,11,02,14,038,,05,08,069,,12,04,103,,14,10,229,,6*67
1563269744263622894,67152,1563269744262159109,/gps,$GPGSV,3,2,11,16,14,285,,21,28,171,,23,11,323,,25,42,103,21,6*62
1563269744344274332,67154,1563269744333726882,/gps,$GLGSV,3,1,10,69,07,309,31,70,11,003,29,76,03,136,,77,55,135,33,1*75
1563269744344301245,67155,1563269744339786052,/gps,$GLGSV,3,2,10,78,66,318,38,79,14,316,34,81,07,210,26,86,14,035,32,1*7B
1563269744349862981,67156,1563269744348556995,/gps,$GLGSV,3,3,10,87,74,061,36,88,51,201,33,1*70
1563269744360341789,67157,1563269744359695911,/gps,$GLGSV,3,1,10,69,07,309,26,70,11,003,,76,03,136,,77,55,135,22,3*7A
1563269744366150606,67158,1563269744363368034,/gps,$GLGSV,3,2,10,78,66,318,29,79,14,316,21,81,07,210,13,86,14,035,28,3*70
1563269744367583105,67159,1563269744366929054,/gps,$GLGSV,3,3,10,87,74,061,22,88,51,201,,3*77
1563269744369682124,67160,1563269744369066953,/gps,$GAGSV,3,1,10,02,64,299,37,07,09,313,32,08,03,266,18,11,59,081,33,7*7D
1563269744371388458,67161,1563269744370302915,/gps,$GNTXT,01,01,00,txbuf alloc*61
1563269744417647910,67162,1563269744416387081,/gps,$GNRMC,083543.20,A,5056.33637,N,00128.25338,W,0.058,,160719,,,A,V*08
1563269744421144835,67163,1563269744420514106,/gps,$GNVTG,,T,,M,0.058,N,0.107,K,A*36
1563269744423781314,67164,1563269744422600030,/gps,$GNGGA,083543.20,5056.33637,N,00128.25338,W,1,12,0.73,16.8,M,47.1,M,,*61
1563269744425216437,67165,1563269744424499034,/gps,$GNGSA,A,3,21,25,29,31,16,26,23,02,,,,,1.30,0.73,1.08,1*03
1563269744426799598,67166,1563269744426145076,/gps,$GNGSA,A,3,88,86,77,78,87,79,,,,,,,1.30,0.73,1.08,2*0D
1563269744428448457,67167,1563269744427834987,/gps,$GNGSA,A,3,,,,,,,,,,,,,1.30,0.73,1.08,3*0C
1563269744429947199,67168,1563269744429197072,/gps,$GNGSA,A,3,13,28,11,23,,,,,,,,,1.30,0.73,1.08,4*02
1563269744432143982,67169,1563269744431487083,/gps,$GPGSV,3,1,11,02,14,038,27,05,08,069,24,12,04,103,,14,10,229,24,1*65
1563269744515196851,67170,1563269744500873088,/gps,$GPGSV,3,2,11,16,14,285,32,21,28,171,29,23,11,323,34,25,42,103,31,1*69
1563269744515558240,67171,1563269744504142999,/gps,$GPGSV,3,3,11,26,42,290,38,29,70,065,41,31,63,232,38,1*53
1563269744515639939,67172,1563269744508234024,/gps,$GPGSV,3,1,11,02,14,038,,05,08,069,,12,04,103,,14,10,229,,6*67
1563269744515658083,67173,1563269744511934995,/gps,$GPGSV,3,2,11,16,14,285,,21,28,171,,23,11,323,,25,42,103,21,6*62
1563269744516205335,67174,1563269744514792919,/gps,$GPGSV,3,3,11,26,42,290,28,29,70,065,25,31,63,232,23,6*5D
1563269744520989699,67175,1563269744519220113,/gps,$GLGSV,3,1,10,69,07,309,31,70,11,003,29,76,03,136,,77,55,135,33,1*75
1563269744524609669,67176,1563269744523382902,/gps,$GLGSV,3,2,10,78,66,318,38,79,14,316,34,81,07,210,26,86,14,035,32,1*7B
1563269744529305901,67177,1563269744526606082,/gps,$GLGSV,3,3,10,87,73,059,36,88,51,201,33,1*7C
1563269744595161001,67178,1563269744588099002,/gps,$GLGSV,3,1,10,69,07,309,26,70,11,003,,76,03,136,,77,55,135,22,3*7A
1563269744595354256,67179,1563269744592364072,/gps,$GLGSV,3,2,10,78,66,318,29,79,14,316,21,81,07,210,13,86,14,035,28,3*70
1563269744599492420,67180,1563269744596420049,/gps,$GNRMC,083543.40,A,5056.33637,N,00128.25338,W,0.050,,160719,,,A,V*06
1563269744602339370,67181,1563269744599848985,/gps,$GNVTG,,T,,M,0.050,N,0.092,K,A*33
1563269744606708839,67182,1563269744604629993,/gps,$GNGGA,083543.40,5056.33637,N,00128.25338,W,1,12,0.73,16.8,M,47.1,M,,*67
1563269744612239758,67183,1563269744609836101,/gps,$GNGSA,A,3,21,25,29,31,16,26,23,02,,,,,1.30,0.73,1.08,1*03
1563269744640408609,67184,1563269744613240003,/gps,$GNGSA,A,3,88,86,77,78,87,79,,,,,,,1.30,0.73,1.08,2*0D
1563269744643902142,67185,1563269744641237020,/gps,$GNGSA,A,3,,,,,,,,,,,,,1.30,0.73,1.08,3*0C
1563269744675296101,67186,1563269744672142982,/gps,$GNGSA,A,3,13,28,11,23,,,,,,,,,1.30,0.73,1.08,4*02
1563269744680350938,67187,1563269744676265954,/gps,$GPGSV,3,1,11,02,14,038,27,05,08,069,24,12,04,103,,14,10,229,24,1*65
1563269744683963868,67188,1563269744680542945,/gps,$GPGSV,3,2,11,16,14,285,32,21,28,171,29,23,11,323,34,25,42,103,31,1*69
1563269744687895881,67189,1563269744685662031,/gps,$GPGSV,3,3,11,26,42,290,38,29,70,065,41,31,63,232,38,1*53
1563269744691564429,67190,1563269744689300060,/gps,$GPGSV,3,1,11,02,14,038,,05,08,069,,12,04,103,,14,10,229,,6*67
1563269744697284410,67191,1563269744692852020,/gps,$GPGSV,3,2,11,16,14,285,,21,28,171,,23,11,323,,25,42,103,21,6*62
1563269744704227699,67192,1563269744698575019,/gps,$GPGSV,3,3,11,26,42,290,28,29,70,065,25,31,63,232,23,6*5D
1563269744710234763,67193,1563269744708477973,/gps,$GLGSV,3,1,10,69,07,309,31,70,11,003,29,76,03,136,,77,55,135,33,1*75
1563269744763996084,67195,1563269744759108066,/gps,$GLGSV,3,3,10,87,73,059,36,88,51,201,33,1*7C
1563269744765047674,67196,1563269744760855913,/gps,$GLGSV,3,1,10,69,07,309,26,70,11,003,,76,03,136,,77,55,135,21,3*79
1563269744768751487,67197,1563269744766623020,/gps,$GLGSV,3,2,10,78,66,318,29,79,14,316,21,81,07,210,13,86,14,035,28,3*70
1563269744770887851,67198,1563269744769494056,/gps,$GLGSV,3,3,10,87,73,059,21,88,51,201,,3*78
1563269744775127844,67199,1563269744772074937,/gps,$GNRMC,083543.60,A,5056.33637,N,00128.25338,W,0.034,,160719,,,A,V*06
1563269744780374112,67200,1563269744778382062,/gps,$GNVTG,,T,,M,0.034,N,0.062,K,A*3E
1563269744786646433,67201,1563269744781697034,/gps,$GNGGA,083543.60,5056.33637,N,00128.25338,W,1,12,0.73,16.8,M,47.1,M,,*65
1563269744852576991,67202,1563269744843691110,/gps,$GNGSA,A,3,21,25,29,31,16,26,23,02,,,,,1.30,0.73,1.08,1*03
1563269744852594880,67204,1563269744846908092,/gps,$GNGSA,A,3,,,,,,,,,,,,,1.30,0.73,1.08,3*0C
1563269744852778631,67205,1563269744849129915,/gps,$GNGSA,A,3,13,28,11,23,,,,,,,,,1.30,0.73,1.08,4*02
1563269744852790951,67206,1563269744851342916,/gps,$GPGSV,3,1,11,02,14,038,27,05,08,069,25,12,04,103,,14,10,229,24,1*64
1563269744855204638,67207,1563269744853821039,/gps,$GPGSV,3,2,11,16,14,285,33,21,28,171,29,23,11,323,34,25,42,103,31,1*68
1563269744861174932,67208,1563269744859702110,/gps,$GPGSV,3,3,11,26,42,290,38,29,70,065,41,31,63,232,39,1*52
1563269744864824407,67209,1563269744863325119,/gps,$GPGSV,3,1,11,02,14,038,,05,08,069,,12,04,103,,14,10,229,,6*67
1563269744931307241,67210,1563269744928873062,/gps,$GPGSV,3,2,11,16,14,285,,21,28,171,,23,11,323,,25,42,103,22,6*61
1563269744937805778,67213,1563269744935261011,/gps,$GLGSV,3,2,10,78,66,318,38,79,14,316,34,81,07,210,26,86,14,035,32,1*7B
1563269744940448433,67214,1563269744939728021,/gps,$GLGSV,3,3,10,87,73,059,36,88,51,201,33,1*7C
1563269744943064143,67215,1563269744941854953,/gps,$GLGSV,3,1,10,69,07,309,26,70,11,003,,76,03,136,,77,55,135,22,3*7A
1563269744946630799,67216,1563269744945259094,/gps,$GLGSV,3,2,10,78,66,318,29,79,14,316,20,81,07,210,13,86,14,035,28,3*71
1563269744949104040,67217,1563269744947449922,/gps,$GLGSV,3,3,10,87,73,059,21,88,51,201,,3*78
1563269745016749763,67218,1563269745015165090,/gps,$GNRMC,083543.80,A,5056.33637,N,00128.25337,W,0.030,,160719,,,A,V*03
1563269745019564936,67219,1563269745016967058,/gps,$GNVTG,,T,,M,0.030,N,0.056,K,A*3D
1563269745020663664,67220,1563269745018963098,/gps,$GNGGA,083543.80,5056.33637,N,00128.25337,W,1,12,0.73,16.8,M,47.1,M,,*64
1563269745022002656,67221,1563269745021064043,/gps,$GNGSA,A,3,21,25,29,31,16,26,23,02,,,,,1.30,0.73,1.08,1*03
1563269745024424695,67222,1563269745023224115,/gps,$GNGSA,A,3,88,86,77,78,87,79,,,,,,,1.30,0.73,1.08,2*0D
1563269745026722825,67223,1563269745025455951,/gps,$GNGSA,A,3,,,,,,,,,,,,,1.30,0.73,1.08,3*0C
1563269745032348723,67224,1563269745030623912,/gps,$GNGSA,A,3,13,28,11,23,,,,,,,,,1.30,0.73,1.08,4*02
1563269745036377732,67225,1563269745034501075,/gps,$GPGSV,3,1,11,02,14,038,27,05,08,069,25,12,04,103,,14,10,229,24,1*64
1563269745041123694,67226,1563269745038100957,/gps,$GPGSV,3,2,11,16,14,285,33,21,28,171,29,23,11,323,35,25,42,103,32,1*6A
1563269745103658867,67228,1563269745102215051,/gps,$GPGSV,3,1,11,02,14,038,,05,08,069,,12,04,103,,14,10,229,,6*67
1563269745108986194,67229,1563269745106925964,/gps,$GPGSV,3,2,11,16,14,285,,21,28,171,,23,11,323,,25,42,103,22,6*61
1563269745112068960,67230,1563269745109904050,/gps,$GPGSV,3,3,11,26,42,290,28,29,70,065,25,31,63,232,24,6*5A
1563269745113705755,67231,1563269745112214088,/gps,$GLGSV,3,1,10,69,07,309,31,70,11,003,29,76,03,136,,77,55,135,32,1*74
1563269745117832783,67232,1563269745115489006,/gps,$GLGSV,3,2,10,78,66,318,38,79,14,316,34,81,07,210,26,86,14,035,32,1*7B
1563269745120946239,67233,1563269745119152069,/gps,$GLGSV,3,3,10,87,73,059,36,88,51,201,33,1*7C
1563269745122315920,67234,1563269745120872020,/gps,$GLGSV,3,1,10,69,07,309,26,70,11,003,,76,03,136,,77,55,135,21,3*79
1563269745191429441,67236,1563269745188883066,/gps,$GNRMC,083544.00,A,5056.33637,N,00128.25336,W,0.036,,160719,,,A,V*0B
1563269745201122525,67237,1563269745190994024,/gps,$GNVTG,,T,,M,0.036,N,0.066,K,A*38
1563269745201160830,67238,1563269745193629980,/gps,$GNGGA,083544.00,5056.33637,N,00128.25336,W,1,12,0.73,16.8,M,47.1,M,,*6A
1563269745202253861,67239,1563269745200089931,/gps,$GNGSA,A,3,21,25,29,31,16,26,23,02,,,,,1.30,0.73,1.08,1*03
1563269745202790744,67240,1563269745202083110,/gps,$GNGSA,A,3,88,86,77,78,87,79,,,,,,,1.30,0.73,1.08,2*0D
1563269745206872491,67241,1563269745204333066,/gps,$GNGSA,A,3,,,,,,,,,,,,,1.30,0.73,1.08,3*0C
1563269745211718457,67242,1563269745209249019,/gps,$GNGSA,A,3,13,28,11,23,,,,,,,,,1.30,0.73,1.08,4*02
1563269745273602918,67243,1563269745271929979,/gps,$GPGSV,3,1,11,02,14,038,27,05,08,069,25,12,04,103,,14,10,229,24,1*64
1563269745292163520,67244,1563269745275013923,/gps,$GPGSV,3,2,11,16,14,285,33,21,28,171,29,23,11,323,35,25,42,103,32,1*6A
1563269745292372935,67245,1563269745281260967,/gps,$GPGSV,3,3,11,26,42,290,39,29,70,065,41,31,63,232,39,1*53
1563269745292459915,67246,1563269745282989025,/gps,$GPGSV,3,1,11,02,14,038,,05,08,069,,12,04,103,,14,10,229,,6*67
1563269745292527149,67247,1563269745286458015,/gps,$GPGSV,3,2,11,16,14,285,,21,28,171,,23,11,323,,25,42,103,22,6*61
1563269745292608208,67248,1563269745289175033,/gps,$GPGSV,3,3,11,26,42,290,28,29,70,065,25,31,63,232,24,6*5A
1563269745324817908,67249,1563269745294559955,/gps,$GLGSV,3,1,10,69,07,309,31,70,11,003,29,76,03,136,,77,55,135,32,1*74
1563269745324955001,67250,1563269745297461032,/gps,$GLGSV,3,2,10,78,66,318,38,79,14,316,34,81,07,210,26,86,14,035,32,1*7B
1563269745361402005,67252,1563269745359049081,/gps,$GLGSV,3,1,10,69,07,309,26,70,11,003,,76,03,136,,77,55,135,21,3*79
1563269745361542490,67253,1563269745360909938,/gps,$GLGSV,3,2,10,78,66,318,29,79,14,316,20,81,07,210,14,86,14,035,28,3*76
1563269745364354143,67254,1563269745362160921,/gps,$GLGSV,3,3,10,87,73,059,21,88,51,201,,3*78
1563269745364871153,67255,1563269745364094018,/gps,$GAGSV,3,1,10,02,64,299,36,07,09,313,32,08,03,266,19,11,59,081,34,7*7A
1563269745366967933,67256,1563269745365530967,/gps,$GNTXT,01,01,00,txbuf alloc*61
1563269745368668954,67257,1563269745367314100,/gps,$GNRMC,083544.20,A,5056.33637,N,00128.25336,W,0.018,,160719,,,A,V*05
1563269745369968808,67258,1563269745368434906,/gps,$GNVTG,,T,,M,0.018,N,0.034,K,A*33
1563269745444095981,67259,1563269745442877054,/gps,$GNGGA,083544.20,5056.33637,N,00128.25336,W,1,12,0.73,16.8,M,47.1,M,,*68
1563269745447295424,67260,1563269745445113897,/gps,$GNGSA,A,3,21,25,29,31,16,26,23,02,,,,,1.30,0.73,1.08,1*03
1563269745447979192,67261,1563269745446402072,/gps,$GNGSA,A,3,88,86,77,78,87,79,,,,,,,1.30,0.73,1.08,2*0D
1563269745449561361,67262,1563269745448848962,/gps,$GNGSA,A,3,,,,,,,,,,,,,1.30,0.73,1.08,3*0C
1563269745452837830,67263,1563269745450756072,/gps,$GNGSA,A,3,13,28,11,23,,,,,,,,,1.30,0.73,1.08,4*02
1563269745456397190,67264,1563269745454829931,/gps,$GPGSV,3,1,11,02,14,038,27,05,08,069,25,12,04,103,,14,10,229,24,1*64
1563269745464353860,67265,1563269745460971117,/gps,$GPGSV,3,2,11,16,14,285,33,21,28,171,29,23,11,323,35,25,42,103,32,1*6A
1563269745469548286,67266,1563269745465329885,/gps,$GPGSV,3,3,11,26,42,290,39,29,70,065,41,31,63,232,39,1*53
1563269745483235817,67267,1563269745482580900,/gps,$GPGSV,3,1,11,02,14,038,,05,08,069,,12,04,103,,14,10,229,,6*67
1563269745537276349,67268,1563269745530338048,/gps,$GPGSV,3,2,11,16,14,285,,21,28,171,,23,11,323,,25,42,103,22,6*61
1563269745537374272,67269,1563269745533580064,/gps,$GPGSV,3,3,11,26,42,290,28,29,70,065,25,31,63,232,24,6*5A
1563269745538903383,67270,1563269745538043022,/gps,$GLGSV,3,1,10,69,07,309,30,70,11,003,29,76,03,136,,77,55,135,32,1*75
1563269745552508736,67271,1563269745540405988,/gps,$GLGSV,3,2,10,78,66,318,38,79,14,316,34,81,07,210,27,86,14,035,32,1*7A
1563269745558160651,67272,1563269745554683923,/gps,$GLGSV,3,3,10,87,73,059,35,88,52,201,32,1*7D
1563269745560244213,67273,1563269745559434890,/gps,$GLGSV,3,1,10,69,07,309,26,70,11,003,,76,03,136,,77,55,135,21,3*79
1563269745563267522,67274,1563269745561889886,/gps,$GLGSV,3,2,10,78,66,318,29,79,14,316,20,81,07,210,13,86,14,035,28,3*71
1563269745565199783,67275,1563269745564259052,/gps,$GLGSV,3,3,10,87,73,059,21,88,52,201,,3*7B
1563269745642611201,67276,1563269745640604019,/gps,$GNRMC,083544.40,A,5056.33637,N,00128.25335,W,0.028,,160719,,,A,V*03
1563269745660646345,67277,1563269745643166065,/gps,$GNVTG,,T,,M,0.028,N,0.053,K,A*31
