%time,field.header.seq,field.header.stamp,field.header.frame_id,field.status.status,field.status.service,field.latitude,field.longitude,field.altitude,field.position_covariance0,field.position_covariance1,field.position_covariance2,field.position_covariance3,field.position_covariance4,field.position_covariance5,field.position_covariance6,field.position_covariance7,field.position_covariance8,field.position_covariance_type
1563269738604973535,3175,1563269735604863882,/gps,0,1,50.9389391667,-1.4708905,16.9,0.5329,0.0,0.0,0.0,0.5329,0.0,0.0,0.0,2.1316,1
1563269738605198343,3176,1563269735786218881,/gps,0,1,50.9389391667,-1.4708905,16.9,0.5329,0.0,0.0,0.0,0.5329,0.0,0.0,0.0,2.1316,1
1563269738607733186,3177,1563269736195677995,/gps,0,1,50.9389391667,-1.47089033333,16.9,0.5329,0.0,0.0,0.0,0.5329,0.0,0.0,0.0,2.1316,1
1563269738608033036,3178,1563269736383075952,/gps,0,1,50.9389391667,-1.47089033333,16.9,0.5329,0.0,0.0,0.0,0.5329,0.0,0.0,0.0,2.1316,1
1563269738608536702,3179,1563269736619035959,/gps,0,1,50.9389391667,-1.47089016667,16.9,0.5329,0.0,0.0,0.0,0.5329,0.0,0.0,0.0,2.1316,1
1563269738609450783,3180,1563269736796287059,/gps,0,1,50.938939,-1.47089016667,16.9,0.5329,0.0,0.0,0.0,0.5329,0.0,0.0,0.0,2.1316,1
1563269738610632266,3181,1563269737011723995,/gps,0,1,50.938939,-1.47089016667,16.9,0.5329,0.0,0.0,0.0,0.5329,0.0,0.0,0.0,2.1316,1
1563269738612072445,3182,1563269737217194080,/gps,0,1,50.9389391667,-1.47089016667,16.9,0.5329,0.0,0.0,0.0,0.5329,0.0,0.0,0.0,2.1316,1
1563269738644422950,3183,1563269737424459934,/gps,0,1,50.938939,-1.47089016667,16.9,0.5329,0.0,0.0,0.0,0.5329,0.0,0.0,0.0,2.1316,1
1563269738645104127,3184,1563269737590378046,/gps,0,1,50.938939,-1.47089016667,16.9,0.5329,0.0,0.0,0.0,0.5329,0.0,0.0,0.0,2.1316,1
1563269738646111235,3185,1563269737816772937,/gps,0,1,50.938939,-1.47089016667,16.9,0.5329,0.0,0.0,0.0,0.5329,0.0,0.0,0.0,2.1316,1
1563269738647406961,3186,1563269738005284070,/gps,0,1,50.9389391667,-1.47089016667,16.9,0.5329,0.0,0.0,0.0,0.5329,0.0,0.0,0.0,2.1316,1
1563269738652276640,3187,1563269738185226917,/gps,0,1,50.9389391667,-1.47089016667,16.9,0.5329,0.0,0.0,0.0,0.5329,0.0,0.0,0.0,2.1316,1
1563269738662262663,3188,1563269738415904998,/gps,0,1,50.9389391667,-1.47089016667,16.9,0.5329,0.0,0.0,0.0,0.5329,0.0,0.0,0.0,2.1316,1
1563269738753244680,3189,1563269738603302955,/gps,0,1,50.9389391667,-1.47089016667,16.9,0.5329,0.0,0.0,0.0,0.5329,0.0,0.0,0.0,2.1316,1
1563269739199490872,3191,1563269739020035028,/gps,0,1,50.938939,-1.47089,16.9,0.5329,0.0,0.0,0.0,0.5329,0.0,0.0,0.0,2.1316,1
1563269739285407523,3192,1563269739218782901,/gps,0,1,50.9389391667,-1.47089,16.9,0.5329,0.0,0.0,0.0,0.5329,0.0,0.0,0.0,2.1316,1
1563269739941594402,3194,1563269739622003078,/gps,0,1,50.9389391667,-1.47088983333,16.9,0.5329,0.0,0.0,0.0,0.5329,0.0,0.0,0.0,2.1316,1
1563269739941608738,3195,1563269739795649051,/gps,0,1,50.9389391667,-1.47088983333,16.9,0.5329,0.0,0.0,0.0,0.5329,0.0,0.0,0.0,2.1316,1
1563269740665434876,3197,1563269740425775051,/gps,0,1,50.9389391667,-1.47088983333,16.9,0.5329,0.0,0.0,0.0,0.5329,0.0,0.0,0.0,2.1316,1
1563269740665445596,3198,1563269740591618061,/gps,0,1,50.9389391667,-1.47088983333,16.9,0.5329,0.0,0.0,0.0,0.5329,0.0,0.0,0.0,2.1316,1
1563269741432157497,3200,1563269741004069089,/gps,0,1,50.9389391667,-1.47088966667,16.9,0.5329,0.0,0.0,0.0,0.5329,0.0,0.0,0.0,2.1316,1
1563269741432247357,3201,1563269741178313016,/gps,0,1,50.9389391667,-1.47088966667,16.9,0.5329,0.0,0.0,0.0,0.5329,0.0,0.0,0.0,2.1316,1
1563269741499975963,3202,1563269741417861938,/gps,0,1,50.9389393333,-1.47088966667,16.9,0.5329,0.0,0.0,0.0,0.5329,0.0,0.0,0.0,2.1316,1
1563269743380701254,3211,1563269743220537900,/gps,0,1,50.9389393333,-1.4708895,16.8,0.5329,0.0,0.0,0.0,0.5329,0.0,0.0,0.0,2.1316,1
1563269743429176306,3212,1563269743402160882,/gps,0,1,50.9389393333,-1.4708895,16.8,0.5329,0.0,0.0,0.0,0.5329,0.0,0.0,0.0,2.1316,1
1563269743592411636,3213,1563269743584692001,/gps,0,1,50.9389395,-1.4708895,16.8,0.5329,0.0,0.0,0.0,0.5329,0.0,0.0,0.0,2.1316,1
1563269743830613817,3214,1563269743822551012,/gps,0,1,50.9389395,-1.47088966667,16.8,0.5329,0.0,0.0,0.0,0.5329,0.0,0.0,0.0,2.1316,1
1563269744021350551,3215,1563269744017971992,/gps,0,1,50.9389395,-1.47088966667,16.8,0.5329,0.0,0.0,0.0,0.5329,0.0,0.0,0.0,2.1316,1
1563269744184965703,3216,1563269744180448055,/gps,0,1,50.9389395,-1.47088966667,16.8,0.5329,0.0,0.0,0.0,0.5329,0.0,0.0,0.0,2.1316,1
1563269744425939407,3217,1563269744422600030,/gps,0,1,50.9389395,-1.47088966667,16.8,0.5329,0.0,0.0,0.0,0.5329,0.0,0.0,0.0,2.1316,1
1563269744611976324,3218,1563269744604629993,/gps,0,1,50.9389395,-1.47088966667,16.8,0.5329,0.0,0.0,0.0,0.5329,0.0,0.0,0.0,2.1316,1
1563269744785778146,3219,1563269744781697034,/gps,0,1,50.9389395,-1.47088966667,16.8,0.5329,0.0,0.0,0.0,0.5329,0.0,0.0,0.0,2.1316,1
1563269745021449740,3220,1563269745018963098,/gps,0,1,50.9389395,-1.4708895,16.8,0.5329,0.0,0.0,0.0,0.5329,0.0,0.0,0.0,2.1316,1
1563269745201194943,3221,1563269745193629980,/gps,0,1,50.9389395,-1.47088933333,16.8,0.5329,0.0,0.0,0.0,0.5329,0.0,0.0,0.0,2.1316,1
1563269745446773837,3222,1563269745442877054,/gps,0,1,50.9389395,-1.47088933333,16.8,0.5329,0.0,0.0,0.0,0.5329,0.0,0.0,0.0,2.1316,1
1563269745670710770,3223,1563269745665144920,/gps,0,1,50.9389395,-1.47088916667,16.8,0.5184,0.0,0.0,0.0,0.5184,0.0,0.0,0.0,2.0736,1
1563269745801028439,3224,1563269745799223899,/gps,0,1,50.9389395,-1.47088916667,16.8,0.5184,0.0,0.0,0.0,0.5184,0.0,0.0,0.0,2.0736,1
1563269745990774545,3225,1563269745986851930,/gps,0,1,50.9389395,-1.47088916667,16.8,0.5184,0.0,0.0,0.0,0.5184,0.0,0.0,0.0,2.0736,1
1563269746222700277,3226,1563269746220859050,/gps,0,1,50.9389396667,-1.47088916667,16.8,0.5184,0.0,0.0,0.0,0.5184,0.0,0.0,0.0,2.0736,1
1563269746407429371,3227,1563269746399347066,/gps,0,1,50.93894,-1.4708895,16.8,0.5184,0.0,0.0,0.0,0.5184,0.0,0.0,0.0,2.0736,1
1563269746827291191,3228,1563269746819883108,/gps,0,1,50.938941,-1.4708905,16.7,0.5184,0.0,0.0,0.0,0.5184,0.0,0.0,0.0,2.0736,1
1563269747009260602,3229,1563269746998919010,/gps,0,1,50.9389418333,-1.47089133333,16.7,0.5184,0.0,0.0,0.0,0.5184,0.0,0.0,0.0,2.0736,1
1563269747199363329,3230,1563269747189337968,/gps,0,1,50.9389426667,-1.47089283333,16.7,0.5184,0.0,0.0,0.0,0.5184,0.0,0.0,0.0,2.0736,1
1563269747460782695,3231,1563269747455262899,/gps,0,1,50.9389438333,-1.4708945,16.7,0.5184,0.0,0.0,0.0,0.5184,0.0,0.0,0.0,2.0736,1
1563269747612001562,3232,1563269747605853080,/gps,0,1,50.9389448333,-1.4708965,16.7,0.5184,0.0,0.0,0.0,0.5184,0.0,0.0,0.0,2.0736,1
1563269747858527146,3233,1563269747847894906,/gps,0,1,50.9389461667,-1.470899,16.6,0.5184,0.0,0.0,0.0,0.5184,0.0,0.0,0.0,2.0736,1
1563269748046158168,3234,1563269748032311916,/gps,0,1,50.9389476667,-1.47090216667,16.6,0.5184,0.0,0.0,0.0,0.5184,0.0,0.0,0.0,2.0736,1
1563269748249190415,3235,1563269748240680932,/gps,0,1,50.9389495,-1.470906,16.5,0.5184,0.0,0.0,0.0,0.5184,0.0,0.0,0.0,2.0736,1
1563269748455686722,3236,1563269748449069976,/gps,0,1,50.9389518333,-1.47091066667,16.5,0.5184,0.0,0.0,0.0,0.5184,0.0,0.0,0.0,2.0736,1
1563269748635958920,3237,1563269748628536939,/gps,0,1,50.9389541667,-1.47091633333,16.5,0.5184,0.0,0.0,0.0,0.5184,0.0,0.0,0.0,2.0736,1
1563269748819177559,3238,1563269748815157890,/gps,0,1,50.938957,-1.47092266667,16.5,0.5184,0.0,0.0,0.0,0.5184,0.0,0.0,0.0,2.0736,1
1563269749049207511,3239,1563269749046521902,/gps,0,1,50.93896,-1.4709295,16.5,0.5184,0.0,0.0,0.0,0.5184,0.0,0.0,0.0,2.0736,1
1563269749278482332,3240,1563269749266949892,/gps,0,1,50.9389633333,-1.47093716667,16.5,0.5184,0.0,0.0,0.0,0.5184,0.0,0.0,0.0,2.0736,1
1563269749658138006,3241,1563269749651426076,/gps,0,1,50.9389708333,-1.470954,16.5,0.5184,0.0,0.0,0.0,0.5184,0.0,0.0,0.0,2.0736,1
1563269749850911324,3242,1563269749836769104,/gps,0,1,50.9389746667,-1.47096316667,16.5,0.5184,0.0,0.0,0.0,0.5184,0.0,0.0,0.0,2.0736,1
1563269750264446422,3243,1563269750256469964,/gps,0,1,50.9389826667,-1.4709815,16.4,0.5184,0.0,0.0,0.0,0.5184,0.0,0.0,0.0,2.0736,1
1563269750453184780,3244,1563269750434988975,/gps,0,1,50.9389868333,-1.47099083333,16.4,0.5184,0.0,0.0,0.0,0.5184,0.0,0.0,0.0,2.0736,1
1563269750859373950,3245,1563269750856498003,/gps,0,1,50.938995,-1.47101,16.4,0.5184,0.0,0.0,0.0,0.5184,0.0,0.0,0.0,2.0736,1
1563269751030862376,3246,1563269751026076078,/gps,0,1,50.9389991667,-1.47101966667,16.4,0.5184,0.0,0.0,0.0,0.5184,0.0,0.0,0.0,2.0736,1
1563269751208697943,3247,1563269751206192016,/gps,0,1,50.9390033333,-1.47102933333,16.4,0.5184,0.0,0.0,0.0,0.5184,0.0,0.0,0.0,2.0736,1
1563269751475199251,3248,1563269751462377071,/gps,0,1,50.9390075,-1.471039,16.3,0.5184,0.0,0.0,0.0,0.5184,0.0,0.0,0.0,2.0736,1
1563269751643876377,3249,1563269751640100002,/gps,0,1,50.9390116667,-1.47104883333,16.3,0.5184,0.0,0.0,0.0,0.5184,0.0,0.0,0.0,2.0736,1
1563269751875619670,3250,1563269751871851921,/gps,0,1,50.9390158333,-1.47105883333,16.3,0.5184,0.0,0.0,0.0,0.5184,0.0,0.0,0.0,2.0736,1
1563269752079952988,3251,1563269752076003074,/gps,0,1,50.93902,-1.47106883333,16.3,0.5184,0.0,0.0,0.0,0.5184,0.0,0.0,0.0,2.0736,1
1563269752235027289,3252,1563269752228364944,/gps,0,1,50.9390243333,-1.47107883333,16.3,0.5184,0.0,0.0,0.0,0.5184,0.0,0.0,0.0,2.0736,1
1563269752430001295,3253,1563269752423376083,/gps,0,1,50.9390285,-1.471089,16.3,0.5184,0.0,0.0,0.0,0.5184,0.0,0.0,0.0,2.0736,1
1563269752660000750,3254,1563269752655486106,/gps,0,1,50.9390326667,-1.47109916667,16.3,0.5184,0.0,0.0,0.0,0.5184,0.0,0.0,0.0,2.0736,1
1563269752882062095,3255,1563269752879935979,/gps,0,1,50.939037,-1.4711095,16.2,0.5184,0.0,0.0,0.0,0.5184,0.0,0.0,0.0,2.0736,1
1563269753029653184,3256,1563269753027188062,/gps,0,1,50.9390411667,-1.47111983333,16.2,0.5184,0.0,0.0,0.0,0.5184,0.0,0.0,0.0,2.0736,1
1563269753251580445,3257,1563269753244991064,/gps,0,1,50.9390455,-1.47113033333,16.2,0.5184,0.0,0.0,0.0,0.5184,0.0,0.0,0.0,2.0736,1
1563269753438430447,3258,1563269753431731939,/gps,0,1,50.9390496667,-1.471141,16.2,0.5184,0.0,0.0,0.0,0.5184,0.0,0.0,0.0,2.0736,1
1563269753683387655,3259,1563269753673340082,/gps,0,1,50.9390536667,-1.47115183333,16.2,0.5184,0.0,0.0,0.0,0.5184,0.0,0.0,0.0,2.0736,1
1563269753867995912,3260,1563269753861658096,/gps,0,1,50.9390578333,-1.471163,16.1,0.5184,0.0,0.0,0.0,0.5184,0.0,0.0,0.0,2.0736,1
1563269754050470461,3261,1563269754036618947,/gps,0,1,50.9390615,-1.47117466667,16.1,0.5184,0.0,0.0,0.0,0.5184,0.0,0.0,0.0,2.0736,1
1563269754213135723,3262,1563269754208924055,/gps,0,1,50.9390653333,-1.47118616667,16.1,0.5184,0.0,0.0,0.0,0.5184,0.0,0.0,0.0,2.0736,1
1563269754459933413,3263,1563269754454387903,/gps,0,1,50.9390688333,-1.471198,16.1,0.5184,0.0,0.0,0.0,0.5184,0.0,0.0,0.0,2.0736,1
1563269754650658274,3264,1563269754639372110,/gps,0,1,50.939072,-1.47121016667,16.1,0.5184,0.0,0.0,0.0,0.5184,0.0,0.0,0.0,2.0736,1
1563269754826526474,3265,1563269754822134971,/gps,0,1,50.9390748333,-1.47122266667,16.1,0.5184,0.0,0.0,0.0,0.5184,0.0,0.0,0.0,2.0736,1
1563269755086469499,3266,1563269755079379081,/gps,0,1,50.9390776667,-1.4712355,16.1,0.5184,0.0,0.0,0.0,0.5184,0.0,0.0,0.0,2.0736,1
1563269755247043710,3267,1563269755230587005,/gps,0,1,50.9390801667,-1.47124833333,16.1,0.5184,0.0,0.0,0.0,0.5184,0.0,0.0,0.0,2.0736,1
1563269755475908788,3268,1563269755472729921,/gps,0,1,50.9390823333,-1.4712615,16.1,0.5184,0.0,0.0,0.0,0.5184,0.0,0.0,0.0,2.0736,1
1563269755676514163,3269,1563269755655390024,/gps,0,1,50.9390841667,-1.471275,16.0,0.5184,0.0,0.0,0.0,0.5184,0.0,0.0,0.0,2.0736,1
1563269755831081471,3270,1563269755828913927,/gps,0,1,50.9390856667,-1.471289,16.1,0.5184,0.0,0.0,0.0,0.5184,0.0,0.0,0.0,2.0736,1
1563269756010588617,3271,1563269756008886098,/gps,0,1,50.9390868333,-1.4713025,16.0,0.5184,0.0,0.0,0.0,0.5184,0.0,0.0,0.0,2.0736,1
1563269756266506250,3272,1563269756254863023,/gps,0,1,50.9390878333,-1.4713165,16.0,0.5184,0.0,0.0,0.0,0.5184,0.0,0.0,0.0,2.0736,1
1563269756436013838,3273,1563269756432327032,/gps,0,1,50.9390883333,-1.4713305,16.0,0.5184,0.0,0.0,0.0,0.5184,0.0,0.0,0.0,2.0736,1
1563269756610094325,3274,1563269756607492923,/gps,0,1,50.9390888333,-1.47134466667,16.0,0.5184,0.0,0.0,0.0,0.5184,0.0,0.0,0.0,2.0736,1
1563269756882905780,3275,1563269756852040052,/gps,0,1,50.939089,-1.47135883333,16.0,0.5184,0.0,0.0,0.0,0.5184,0.0,0.0,0.0,2.0736,1
1563269757033637750,3276,1563269757025721073,/gps,0,1,50.9390893333,-1.47137316667,16.0,0.5184,0.0,0.0,0.0,0.5184,0.0,0.0,0.0,2.0736,1
1563269757224157996,3277,1563269757221051931,/gps,0,1,50.9390895,-1.4713875,15.9,0.5184,0.0,0.0,0.0,0.5184,0.0,0.0,0.0,2.0736,1
1563269757447969324,3278,1563269757445303916,/gps,0,1,50.9390896667,-1.471402,15.9,0.5184,0.0,0.0,0.0,0.5184,0.0,0.0,0.0,2.0736,1
1563269757644263889,3279,1563269757632216930,/gps,0,1,50.9390898333,-1.47141666667,15.9,0.5184,0.0,0.0,0.0,0.5184,0.0,0.0,0.0,2.0736,1
1563269757811134646,3280,1563269757803910017,/gps,0,1,50.9390898333,-1.47143116667,15.9,0.5184,0.0,0.0,0.0,0.5184,0.0,0.0,0.0,2.0736,1
1563269758054142920,3281,1563269758044873952,/gps,0,1,50.9390898333,-1.47144583333,15.9,0.5184,0.0,0.0,0.0,0.5184,0.0,0.0,0.0,2.0736,1
1563269758250791289,3282,1563269758241384029,/gps,0,1,50.9390898333,-1.4714605,15.9,0.5184,0.0,0.0,0.0,0.5184,0.0,0.0,0.0,2.0736,1
1563269758407941090,3283,1563269758403214931,/gps,0,1,50.93909,-1.47147533333,15.9,0.5184,0.0,0.0,0.0,0.5184,0.0,0.0,0.0,2.0736,1
1563269758653697462,3284,1563269758650026082,/gps,0,1,50.9390898333,-1.47149016667,15.8,0.5184,0.0,0.0,0.0,0.5184,0.0,0.0,0.0,2.0736,1
1563269758854082189,3285,1563269758850728034,/gps,0,1,50.9390898333,-1.47150533333,15.8,0.5184,0.0,0.0,0.0,0.5184,0.0,0.0,0.0,2.0736,1
1563269759032435886,3286,1563269759022216081,/gps,0,1,50.9390898333,-1.47152033333,15.8,0.5184,0.0,0.0,0.0,0.5184,0.0,0.0,0.0,2.0736,1
1563269759249912012,3287,1563269759247073888,/gps,0,1,50.9390896667,-1.4715355,15.8,0.5184,0.0,0.0,0.0,0.5184,0.0,0.0,0.0,2.0736,1
1563269759431905263,3288,1563269759429712057,/gps,0,1,50.9390895,-1.471551,15.8,0.5184,0.0,0.0,0.0,0.5184,0.0,0.0,0.0,2.0736,1
1563269759665488399,3289,1563269759613246917,/gps,0,1,50.9390895,-1.4715665,15.9,0.5184,0.0,0.0,0.0,0.5184,0.0,0.0,0.0,2.0736,1
1563269760033835410,3290,1563269760027364969,/gps,0,1,50.9390891667,-1.47159716667,15.8,0.5184,0.0,0.0,0.0,0.5184,0.0,0.0,0.0,2.0736,1
1563269760224053437,3291,1563269760216846942,/gps,0,1,50.939089,-1.47161266667,15.8,0.5184,0.0,0.0,0.0,0.5184,0.0,0.0,0.0,2.0736,1
1563269760462525740,3292,1563269760449295997,/gps,0,1,50.9390888333,-1.47162833333,15.8,0.5184,0.0,0.0,0.0,0.5184,0.0,0.0,0.0,2.0736,1
1563269760628085538,3293,1563269760623313903,/gps,0,1,50.9390886667,-1.471644,15.8,0.5184,0.0,0.0,0.0,0.5184,0.0,0.0,0.0,2.0736,1
1563269760825603123,3294,1563269760821124076,/gps,0,1,50.9390885,-1.47165966667,15.7,0.5184,0.0,0.0,0.0,0.5184,0.0,0.0,0.0,2.0736,1
1563269761047230661,3295,1563269761043258905,/gps,0,1,50.9390883333,-1.47167566667,15.7,0.5184,0.0,0.0,0.0,0.5184,0.0,0.0,0.0,2.0736,1
1563269761234956822,3296,1563269761232250928,/gps,0,1,50.9390883333,-1.4716915,15.7,0.5184,0.0,0.0,0.0,0.5184,0.0,0.0,0.0,2.0736,1
1563269761432946840,3297,1563269761426333904,/gps,0,1,50.9390881667,-1.47170733333,15.7,0.5184,0.0,0.0,0.0,0.5184,0.0,0.0,0.0,2.0736,1
1563269761648190053,3298,1563269761645525932,/gps,0,1,50.9390881667,-1.47172316667,15.7,0.5184,0.0,0.0,0.0,0.5184,0.0,0.0,0.0,2.0736,1
1563269761849540256,3299,1563269761835827112,/gps,0,1,50.9390883333,-1.47173916667,15.7,0.5184,0.0,0.0,0.0,0.5184,0.0,0.0,0.0,2.0736,1
1563269762025868152,3300,1563269762014008045,/gps,0,1,50.9390883333,-1.47175483333,15.6,0.5184,0.0,0.0,0.0,0.5184,0.0,0.0,0.0,2.0736,1
1563269762263469319,3301,1563269762253273010,/gps,0,1,50.9390883333,-1.47177066667,15.6,0.5184,0.0,0.0,0.0,0.5184,0.0,0.0,0.0,2.0736,1
1563269762435969366,3302,1563269762430707931,/gps,0,1,50.9390883333,-1.4717865,15.6,0.5184,0.0,0.0,0.0,0.5184,0.0,0.0,0.0,2.0736,1
1563269762652599317,3303,1563269762624213933,/gps,0,1,50.9390883333,-1.47180216667,15.6,0.5184,0.0,0.0,0.0,0.5184,0.0,0.0,0.0,2.0736,1
1563269762856764053,3304,1563269762843430042,/gps,0,1,50.9390881667,-1.47181766667,15.6,0.5184,0.0,0.0,0.0,0.5184,0.0,0.0,0.0,2.0736,1
1563269763027249435,3305,1563269763024671077,/gps,0,1,50.9390883333,-1.47183266667,15.6,0.5184,0.0,0.0,0.0,0.5184,0.0,0.0,0.0,2.0736,1
1563269763219412044,3306,1563269763203442096,/gps,0,1,50.9390881667,-1.47184733333,15.6,0.5184,0.0,0.0,0.0,0.5184,0.0,0.0,0.0,2.0736,1
1563269763506936539,3307,1563269763449001073,/gps,0,1,50.9390881667,-1.47186133333,15.6,0.5184,0.0,0.0,0.0,0.5184,0.0,0.0,0.0,2.0736,1
1563269763636663499,3308,1563269763624279975,/gps,0,1,50.939088,-1.47187533333,15.6,0.5184,0.0,0.0,0.0,0.5184,0.0,0.0,0.0,2.0736,1
1563269763828051552,3309,1563269763823849916,/gps,0,1,50.9390878333,-1.47188866667,15.6,0.5184,0.0,0.0,0.0,0.5184,0.0,0.0,0.0,2.0736,1
1563269764068926437,3310,1563269764057981014,/gps,0,1,50.9390876667,-1.4719015,15.6,0.5184,0.0,0.0,0.0,0.5184,0.0,0.0,0.0,2.0736,1
1563269764237315648,3311,1563269764221632003,/gps,0,1,50.9390873333,-1.47191383333,15.6,0.5184,0.0,0.0,0.0,0.5184,0.0,0.0,0.0,2.0736,1
1563269764397409490,3312,1563269764394694089,/gps,0,1,50.9390873333,-1.47192533333,15.6,0.5184,0.0,0.0,0.0,0.5184,0.0,0.0,0.0,2.0736,1
1563269764577828413,3313,1563269764570283889,/gps,0,1,50.9390873333,-1.47193616667,15.6,0.5184,0.0,0.0,0.0,0.5184,0.0,0.0,0.0,2.0736,1
1563269764747269982,3314,1563269764742629051,/gps,0,1,50.9390873333,-1.47194533333,15.6,0.5184,0.0,0.0,0.0,0.5184,0.0,0.0,0.0,2.0736,1
1563269764991652225,3315,1563269764989310026,/gps,0,1,50.9390873333,-1.471953,15.6,0.5184,0.0,0.0,0.0,0.5184,0.0,0.0,0.0,2.0736,1
1563269765176163967,3316,1563269765170809030,/gps,0,1,50.9390875,-1.47195866667,15.5,0.5184,0.0,0.0,0.0,0.5184,0.0,0.0,0.0,2.0736,1
1563269765431716947,3317,1563269765414181947,/gps,0,1,50.9390875,-1.4719625,15.5,0.5184,0.0,0.0,0.0,0.5184,0.0,0.0,0.0,2.0736,1
1563269765594327455,3318,1563269765592593908,/gps,0,1,50.9390875,-1.4719655,15.5,0.5184,0.0,0.0,0.0,0.5184,0.0,0.0,0.0,2.0736,1
1563269765774439199,3319,1563269765766027927,/gps,0,1,50.9390876667,-1.4719675,15.5,0.5184,0.0,0.0,0.0,0.5184,0.0,0.0,0.0,2.0736,1
1563269765943145222,3320,1563269765941138982,/gps,0,1,50.9390876667,-1.47196933333,15.5,0.5184,0.0,0.0,0.0,0.5184,0.0,0.0,0.0,2.0736,1
1563269766196987644,3321,1563269766194021940,/gps,0,1,50.9390875,-1.4719705,15.5,0.5184,0.0,0.0,0.0,0.5184,0.0,0.0,0.0,2.0736,1
1563269766391814701,3322,1563269766389373064,/gps,0,1,50.9390876667,-1.47197116667,15.5,0.5184,0.0,0.0,0.0,0.5184,0.0,0.0,0.0,2.0736,1
1563269766558511467,3323,1563269766547538995,/gps,0,1,50.9390876667,-1.47197166667,15.6,0.5184,0.0,0.0,0.0,0.5184,0.0,0.0,0.0,2.0736,1
1563269766969406150,3324,1563269766961797952,/gps,0,1,50.9390876667,-1.4719715,15.6,0.5184,0.0,0.0,0.0,0.5184,0.0,0.0,0.0,2.0736,1
1563269767306773490,3325,1563269767256015062,/gps,0,1,50.9390876667,-1.47197133333,15.6,0.5184,0.0,0.0,0.0,0.5184,0.0,0.0,0.0,2.0736,1
1563269767504108540,3326,1563269767385785102,/gps,0,1,50.9390876667,-1.47197133333,15.6,0.5184,0.0,0.0,0.0,0.5184,0.0,0.0,0.0,2.0736,1
1563269767600224534,3327,1563269767561089038,/gps,0,1,50.9390876667,-1.4719715,15.6,0.5184,0.0,0.0,0.0,0.5184,0.0,0.0,0.0,2.0736,1
1563269767804768547,3328,1563269767758172035,/gps,0,1,50.9390876667,-1.47197183333,15.6,0.5184,0.0,0.0,0.0,0.5184,0.0,0.0,0.0,2.0736,1
1563269767939278559,3329,1563269767934912919,/gps,0,1,50.9390876667,-1.47197266667,15.6,0.5184,0.0,0.0,0.0,0.5184,0.0,0.0,0.0,2.0736,1
1563269768187163135,3330,1563269768176867961,/gps,0,1,50.9390876667,-1.47197416667,15.6,0.5184,0.0,0.0,0.0,0.5184,0.0,0.0,0.0,2.0736,1
1563269768359781650,3331,1563269768353703975,/gps,0,1,50.9390876667,-1.471976,15.6,0.5184,0.0,0.0,0.0,0.5184,0.0,0.0,0.0,2.0736,1
1563269768531332863,3332,1563269768526804924,/gps,0,1,50.9390876667,-1.47197833333,15.6,0.5184,0.0,0.0,0.0,0.5184,0.0,0.0,0.0,2.0736,1
1563269768778273854,3333,1563269768768457889,/gps,0,1,50.9390876667,-1.47198166667,15.6,0.5184,0.0,0.0,0.0,0.5184,0.0,0.0,0.0,2.0736,1
1563269768959382114,3334,1563269768946425914,/gps,0,1,50.9390876667,-1.47198616667,15.6,0.5184,0.0,0.0,0.0,0.5184,0.0,0.0,0.0,2.0736,1
1563269769125248355,3335,1563269769122950077,/gps,0,1,50.9390875,-1.471992,15.7,0.5184,0.0,0.0,0.0,0.5184,0.0,0.0,0.0,2.0736,1
1563269769383351186,3336,1563269769376934051,/gps,0,1,50.9390871667,-1.47199883333,15.7,0.5184,0.0,0.0,0.0,0.5184,0.0,0.0,0.0,2.0736,1
1563269769555302701,3337,1563269769549175977,/gps,0,1,50.939087,-1.47200733333,15.6,0.5184,0.0,0.0,0.0,0.5184,0.0,0.0,0.0,2.0736,1
1563269769793576021,3338,1563269769784802913,/gps,0,1,50.9390866667,-1.47201733333,15.7,0.5184,0.0,0.0,0.0,0.5184,0.0,0.0,0.0,2.0736,1
1563269769965303464,3339,1563269769962157964,/gps,0,1,50.9390861667,-1.47202816667,15.6,0.5184,0.0,0.0,0.0,0.5184,0.0,0.0,0.0,2.0736,1
1563269770161493641,3340,1563269770158451080,/gps,0,1,50.9390858333,-1.47204066667,15.7,0.5184,0.0,0.0,0.0,0.5184,0.0,0.0,0.0,2.0736,1
1563269770399700334,3341,1563269770396218061,/gps,0,1,50.9390855,-1.47205433333,15.6,0.5184,0.0,0.0,0.0,0.5184,0.0,0.0,0.0,2.0736,1
1563269770575002946,3342,1563269770571691989,/gps,0,1,50.9390851667,-1.4720685,15.6,0.5184,0.0,0.0,0.0,0.5184,0.0,0.0,0.0,2.0736,1
1563269770776222904,3343,1563269770772615909,/gps,0,1,50.9390848333,-1.4720835,15.6,0.5184,0.0,0.0,0.0,0.5184,0.0,0.0,0.0,2.0736,1
1563269770991744207,3344,1563269770988368034,/gps,0,1,50.9390846667,-1.47209883333,15.6,0.5184,0.0,0.0,0.0,0.5184,0.0,0.0,0.0,2.0736,1
1563269771171093172,3345,1563269771167756080,/gps,0,1,50.9390846667,-1.4721145,15.5,0.5184,0.0,0.0,0.0,0.5184,0.0,0.0,0.0,2.0736,1
1563269771419021494,3346,1563269771412935972,/gps,0,1,50.9390848333,-1.47213016667,15.5,0.5184,0.0,0.0,0.0,0.5184,0.0,0.0,0.0,2.0736,1
1563269771597073580,3347,1563269771591428995,/gps,0,1,50.939085,-1.4721455,15.5,0.5184,0.0,0.0,0.0,0.5184,0.0,0.0,0.0,2.0736,1
1563269771812125522,3348,1563269771793256044,/gps,0,1,50.9390848333,-1.47216133333,15.5,0.5184,0.0,0.0,0.0,0.5184,0.0,0.0,0.0,2.0736,1
1563269771945257628,3349,1563269771943717956,/gps,0,1,50.9390848333,-1.47217666667,15.4,0.5184,0.0,0.0,0.0,0.5184,0.0,0.0,0.0,2.0736,1
1563269772192018164,3350,1563269772189083099,/gps,0,1,50.9390846667,-1.47219166667,15.4,0.5184,0.0,0.0,0.0,0.5184,0.0,0.0,0.0,2.0736,1
1563269772390995705,3351,1563269772386244058,/gps,0,1,50.9390838333,-1.47220633333,15.4,0.5184,0.0,0.0,0.0,0.5184,0.0,0.0,0.0,2.0736,1
1563269772798823078,3352,1563269772794274091,/gps,0,1,50.939081,-1.4722335,15.4,0.5184,0.0,0.0,0.0,0.5184,0.0,0.0,0.0,2.0736,1
1563269772988555616,3353,1563269772969774961,/gps,0,1,50.9390788333,-1.47224633333,15.3,0.5184,0.0,0.0,0.0,0.5184,0.0,0.0,0.0,2.0736,1
1563269773231767609,3354,1563269773213180065,/gps,0,1,50.9390766667,-1.47225816667,15.3,0.5184,0.0,0.0,0.0,0.5184,0.0,0.0,0.0,2.0736,1
1563269773403906939,3355,1563269773400659084,/gps,0,1,50.939074,-1.47226883333,15.3,0.5184,0.0,0.0,0.0,0.5184,0.0,0.0,0.0,2.0736,1
1563269773601986592,3356,1563269773597738981,/gps,0,1,50.9390711667,-1.4722785,15.4,0.5184,0.0,0.0,0.0,0.5184,0.0,0.0,0.0,2.0736,1
1563269773759381840,3357,1563269773756863117,/gps,0,1,50.9390683333,-1.47228733333,15.4,0.5184,0.0,0.0,0.0,0.5184,0.0,0.0,0.0,2.0736,1
1563269774173459934,3358,1563269774170702934,/gps,0,1,50.9390626667,-1.47230216667,15.4,0.5184,0.0,0.0,0.0,0.5184,0.0,0.0,0.0,2.0736,1
1563269774419668642,3359,1563269774412853956,/gps,0,1,50.9390595,-1.4723085,15.3,0.5184,0.0,0.0,0.0,0.5184,0.0,0.0,0.0,2.0736,1
1563269774601974673,3360,1563269774597419023,/gps,0,1,50.9390566667,-1.47231466667,15.4,0.5184,0.0,0.0,0.0,0.5184,0.0,0.0,0.0,2.0736,1
1563269774771625594,3361,1563269774768826007,/gps,0,1,50.9390535,-1.47232033333,15.4,0.5184,0.0,0.0,0.0,0.5184,0.0,0.0,0.0,2.0736,1
1563269774957456199,3362,1563269774955744981,/gps,0,1,50.9390501667,-1.47232583333,15.4,0.5184,0.0,0.0,0.0,0.5184,0.0,0.0,0.0,2.0736,1
1563269775192032458,3363,1563269775189840078,/gps,0,1,50.9390468333,-1.4723315,15.4,0.5184,0.0,0.0,0.0,0.5184,0.0,0.0,0.0,2.0736,1
1563269775391743113,3364,1563269775384306907,/gps,0,1,50.939043,-1.47233716667,15.4,0.5184,0.0,0.0,0.0,0.5184,0.0,0.0,0.0,2.0736,1
1563269775818370713,3365,1563269775801728010,/gps,0,1,50.9390341667,-1.47234866667,15.3,0.5184,0.0,0.0,0.0,0.5184,0.0,0.0,0.0,2.0736,1
1563269775990501211,3366,1563269775975158929,/gps,0,1,50.9390285,-1.47235416667,15.4,0.5184,0.0,0.0,0.0,0.5184,0.0,0.0,0.0,2.0736,1
1563269776163300916,3367,1563269776161449909,/gps,0,1,50.9390221667,-1.47235983333,15.4,0.5184,0.0,0.0,0.0,0.5184,0.0,0.0,0.0,2.0736,1
1563269776401582524,3368,1563269776394347906,/gps,0,1,50.9390153333,-1.47236516667,15.3,0.5184,0.0,0.0,0.0,0.5184,0.0,0.0,0.0,2.0736,1
1563269776579483629,3369,1563269776573117971,/gps,0,1,50.9390076667,-1.47236983333,15.3,0.5184,0.0,0.0,0.0,0.5184,0.0,0.0,0.0,2.0736,1
1563269776787672029,3370,1563269776749440908,/gps,0,1,50.9389993333,-1.47237433333,15.2,0.5184,0.0,0.0,0.0,0.5184,0.0,0.0,0.0,2.0736,1
1563269777001478166,3371,1563269776989324092,/gps,0,1,50.9389901667,-1.47237816667,15.1,0.5184,0.0,0.0,0.0,0.5184,0.0,0.0,0.0,2.0736,1
1563269777181242538,3372,1563269777174582958,/gps,0,1,50.9389803333,-1.47238116667,15.1,0.5184,0.0,0.0,0.0,0.5184,0.0,0.0,0.0,2.0736,1
1563269777429805891,3373,1563269777412237882,/gps,0,1,50.9389696667,-1.47238366667,15.1,0.5184,0.0,0.0,0.0,0.5184,0.0,0.0,0.0,2.0736,1
1563269777590290819,3374,1563269777589042901,/gps,0,1,50.9389581667,-1.4723855,15.0,0.5184,0.0,0.0,0.0,0.5184,0.0,0.0,0.0,2.0736,1
1563269777772743383,3375,1563269777770247936,/gps,0,1,50.9389461667,-1.4723875,15.0,0.5184,0.0,0.0,0.0,0.5184,0.0,0.0,0.0,2.0736,1
1563269778191894298,3376,1563269778189064025,/gps,0,1,50.9389198333,-1.47239166667,15.0,0.5184,0.0,0.0,0.0,0.5184,0.0,0.0,0.0,2.0736,1
1563269778375115786,3377,1563269778372438907,/gps,0,1,50.9389055,-1.47239383333,15.0,0.5184,0.0,0.0,0.0,0.5184,0.0,0.0,0.0,2.0736,1
1563269778622552794,3378,1563269778612165927,/gps,0,1,50.9388906667,-1.47239616667,15.0,0.5184,0.0,0.0,0.0,0.5184,0.0,0.0,0.0,2.0736,1
1563269778814520324,3379,1563269778806627035,/gps,0,1,50.9388755,-1.4723985,14.9,0.5184,0.0,0.0,0.0,0.5184,0.0,0.0,0.0,2.0736,1
1563269778978879919,3380,1563269778972645998,/gps,0,1,50.9388595,-1.472401,14.9,0.5184,0.0,0.0,0.0,0.5184,0.0,0.0,0.0,2.0736,1
1563269779225983923,3381,1563269779212047100,/gps,0,1,50.938843,-1.47240333333,14.8,0.5184,0.0,0.0,0.0,0.5184,0.0,0.0,0.0,2.0736,1
1563269779390155511,3382,1563269779386584043,/gps,0,1,50.938826,-1.472406,14.8,0.5184,0.0,0.0,0.0,0.5184,0.0,0.0,0.0,2.0736,1
1563269779613971768,3383,1563269779608052015,/gps,0,1,50.9388086667,-1.4724085,14.8,0.5184,0.0,0.0,0.0,0.5184,0.0,0.0,0.0,2.0736,1
1563269779769574761,3384,1563269779766165971,/gps,0,1,50.9387906667,-1.47241183333,14.8,0.5184,0.0,0.0,0.0,0.5184,0.0,0.0,0.0,2.0736,1
1563269779997733669,3385,1563269779990319967,/gps,0,1,50.9387721667,-1.472415,14.8,0.5184,0.0,0.0,0.0,0.5184,0.0,0.0,0.0,2.0736,1
1563269780178371672,3386,1563269780174623012,/gps,0,1,50.9387533333,-1.47241833333,14.7,0.5184,0.0,0.0,0.0,0.5184,0.0,0.0,0.0,2.0736,1
1563269780415953607,3387,1563269780412132978,/gps,0,1,50.9387338333,-1.47242183333,14.7,0.5476,0.0,0.0,0.0,0.5476,0.0,0.0,0.0,2.1904,1
1563269780604088903,3388,1563269780593189001,/gps,0,1,50.938714,-1.47242533333,14.7,0.5476,0.0,0.0,0.0,0.5476,0.0,0.0,0.0,2.1904,1
1563269780772765933,3389,1563269780765280961,/gps,0,1,50.9386938333,-1.47242866667,14.6,0.5476,0.0,0.0,0.0,0.5476,0.0,0.0,0.0,2.1904,1
1563269780976367064,3390,1563269780954628944,/gps,0,1,50.938673,-1.47243183333,14.6,0.5476,0.0,0.0,0.0,0.5476,0.0,0.0,0.0,2.1904,1
1563269781203887262,3391,1563269781186816930,/gps,0,1,50.938652,-1.47243533333,14.6,0.5476,0.0,0.0,0.0,0.5476,0.0,0.0,0.0,2.1904,1
1563269781374320003,3392,1563269781368886947,/gps,0,1,50.9386305,-1.47243883333,14.5,0.5476,0.0,0.0,0.0,0.5476,0.0,0.0,0.0,2.1904,1
1563269781615294859,3393,1563269781612040042,/gps,0,1,50.9386085,-1.4724425,14.5,0.5476,0.0,0.0,0.0,0.5476,0.0,0.0,0.0,2.1904,1
1563269781826416132,3394,1563269781815280914,/gps,0,1,50.9385861667,-1.47244616667,14.5,0.5476,0.0,0.0,0.0,0.5476,0.0,0.0,0.0,2.1904,1
1563269781967028283,3395,1563269781964617013,/gps,0,1,50.9385636667,-1.47244983333,14.4,0.5476,0.0,0.0,0.0,0.5476,0.0,0.0,0.0,2.1904,1
1563269782190713655,3396,1563269782169359922,/gps,0,1,50.9385403333,-1.47245316667,14.4,0.5476,0.0,0.0,0.0,0.5476,0.0,0.0,0.0,2.1904,1
1563269782397795807,3397,1563269782389977931,/gps,0,1,50.938517,-1.47245683333,14.4,0.5476,0.0,0.0,0.0,0.5476,0.0,0.0,0.0,2.1904,1
1563269782585277639,3398,1563269782575099945,/gps,0,1,50.9384933333,-1.47246033333,14.4,0.5476,0.0,0.0,0.0,0.5476,0.0,0.0,0.0,2.1904,1
1563269782747724846,3399,1563269782744179964,/gps,0,1,50.93847,-1.47246333333,14.3,0.5476,0.0,0.0,0.0,0.5476,0.0,0.0,0.0,2.1904,1
1563269783196285264,3400,1563269783190978050,/gps,0,1,50.9384238333,-1.47246833333,14.3,0.5476,0.0,0.0,0.0,0.5476,0.0,0.0,0.0,2.1904,1
1563269783382815799,3401,1563269783378848075,/gps,0,1,50.9384011667,-1.4724705,14.2,0.5476,0.0,0.0,0.0,0.5476,0.0,0.0,0.0,2.1904,1
1563269783779838784,3402,1563269783775659084,/gps,0,1,50.9383578333,-1.47247366667,14.2,0.5476,0.0,0.0,0.0,0.5476,0.0,0.0,0.0,2.1904,1
1563269783970715586,3403,1563269783950648069,/gps,0,1,50.9383375,-1.47247533333,14.2,0.5476,0.0,0.0,0.0,0.5476,0.0,0.0,0.0,2.1904,1
1563269784199702621,3404,1563269784188926935,/gps,0,1,50.9383185,-1.47247633333,14.2,0.5476,0.0,0.0,0.0,0.5476,0.0,0.0,0.0,2.1904,1
1563269784370292647,3405,1563269784366897106,/gps,0,1,50.9383003333,-1.47247716667,14.2,0.5476,0.0,0.0,0.0,0.5476,0.0,0.0,0.0,2.1904,1
1563269784562161613,3406,1563269784558170080,/gps,0,1,50.9382838333,-1.4724775,14.2,0.5476,0.0,0.0,0.0,0.5476,0.0,0.0,0.0,2.1904,1
1563269784971382700,3407,1563269784965311050,/gps,0,1,50.9382548333,-1.47247816667,14.2,0.5476,0.0,0.0,0.0,0.5476,0.0,0.0,0.0,2.1904,1
1563269785165969044,3408,1563269785150849103,/gps,0,1,50.9382423333,-1.47247816667,14.2,0.5476,0.0,0.0,0.0,0.5476,0.0,0.0,0.0,2.1904,1
1563269785400357648,3409,1563269785396581888,/gps,0,1,50.9382313333,-1.47247816667,14.2,0.5476,0.0,0.0,0.0,0.5476,0.0,0.0,0.0,2.1904,1
1563269785576282586,3410,1563269785568280935,/gps,0,1,50.9382211667,-1.472478,14.1,0.5476,0.0,0.0,0.0,0.5476,0.0,0.0,0.0,2.1904,1
1563269785759603213,3411,1563269785751394987,/gps,0,1,50.9382113333,-1.47247783333,14.2,0.5476,0.0,0.0,0.0,0.5476,0.0,0.0,0.0,2.1904,1
1563269786007891356,3412,1563269785994581937,/gps,0,1,50.9382016667,-1.47247783333,14.2,0.5476,0.0,0.0,0.0,0.5476,0.0,0.0,0.0,2.1904,1
1563269786175320437,3413,1563269786169183969,/gps,0,1,50.9381916667,-1.4724775,14.2,0.5476,0.0,0.0,0.0,0.5476,0.0,0.0,0.0,2.1904,1
1563269786360309188,3414,1563269786352149963,/gps,0,1,50.9381823333,-1.47247733333,14.2,0.5476,0.0,0.0,0.0,0.5476,0.0,0.0,0.0,2.1904,1
1563269786594874919,3415,1563269786583861112,/gps,0,1,50.9381726667,-1.47247716667,14.1,0.5476,0.0,0.0,0.0,0.5476,0.0,0.0,0.0,2.1904,1
1563269786773239080,3416,1563269786763225078,/gps,0,1,50.9381628333,-1.472477,14.1,0.5476,0.0,0.0,0.0,0.5476,0.0,0.0,0.0,2.1904,1
1563269786948875528,3417,1563269786940431118,/gps,0,1,50.9381526667,-1.47247666667,14.2,0.5476,0.0,0.0,0.0,0.5476,0.0,0.0,0.0,2.1904,1
1563269787411939315,3418,1563269787387270927,/gps,0,1,50.9381313333,-1.47247583333,14.2,0.5476,0.0,0.0,0.0,0.5476,0.0,0.0,0.0,2.1904,1
1563269787559600006,3419,1563269787549669027,/gps,0,1,50.9381208333,-1.4724755,14.1,0.5476,0.0,0.0,0.0,0.5476,0.0,0.0,0.0,2.1904,1
1563269787978587332,3420,1563269787971405982,/gps,0,1,50.9380976667,-1.472475,14.0,0.5476,0.0,0.0,0.0,0.5476,0.0,0.0,0.0,2.1904,1
1563269788156251116,3421,1563269788154535055,/gps,0,1,50.938085,-1.47247483333,13.9,0.5476,0.0,0.0,0.0,0.5476,0.0,0.0,0.0,2.1904,1
1563269788397973871,3422,1563269788385118961,/gps,0,1,50.9380718333,-1.4724745,13.9,0.5476,0.0,0.0,0.0,0.5476,0.0,0.0,0.0,2.1904,1
1563269788577303156,3423,1563269788564579010,/gps,0,1,50.9380578333,-1.472474,13.8,0.5476,0.0,0.0,0.0,0.5476,0.0,0.0,0.0,2.1904,1
1563269788773667835,3424,1563269788768738031,/gps,0,1,50.9380433333,-1.47247316667,13.8,0.5476,0.0,0.0,0.0,0.5476,0.0,0.0,0.0,2.1904,1
1563269789181727632,3425,1563269789168538093,/gps,0,1,50.938013,-1.472471,13.7,0.5184,0.0,0.0,0.0,0.5184,0.0,0.0,0.0,2.0736,1
1563269789368374363,3426,1563269789349052906,/gps,0,1,50.9379968333,-1.47246966667,13.7,0.5184,0.0,0.0,0.0,0.5184,0.0,0.0,0.0,2.0736,1
1563269789591821902,3427,1563269789588340997,/gps,0,1,50.9379801667,-1.472468,13.7,0.5184,0.0,0.0,0.0,0.5184,0.0,0.0,0.0,2.0736,1
1563269789766763381,3428,1563269789761346101,/gps,0,1,50.937963,-1.472466,13.7,0.5184,0.0,0.0,0.0,0.5184,0.0,0.0,0.0,2.0736,1
1563269789960090287,3429,1563269789955239057,/gps,0,1,50.9379455,-1.47246366667,13.6,0.5184,0.0,0.0,0.0,0.5184,0.0,0.0,0.0,2.0736,1
1563269790378996138,3430,1563269790373126983,/gps,0,1,50.9379093333,-1.47245833333,13.6,0.5184,0.0,0.0,0.0,0.5184,0.0,0.0,0.0,2.0736,1
1563269790554606952,3431,1563269790545305967,/gps,0,1,50.9378908333,-1.47245533333,13.5,0.5184,0.0,0.0,0.0,0.5184,0.0,0.0,0.0,2.0736,1
1563269790793381634,3432,1563269790785101890,/gps,0,1,50.9378716667,-1.472452,13.5,0.5184,0.0,0.0,0.0,0.5184,0.0,0.0,0.0,2.0736,1
1563269790968970144,3433,1563269790966238975,/gps,0,1,50.9378521667,-1.472448,13.5,0.5184,0.0,0.0,0.0,0.5184,0.0,0.0,0.0,2.0736,1
1563269791159388626,3434,1563269791155714035,/gps,0,1,50.9378325,-1.472444,13.5,0.5184,0.0,0.0,0.0,0.5184,0.0,0.0,0.0,2.0736,1
1563269791393895090,3435,1563269791391242980,/gps,0,1,50.9378121667,-1.4724395,13.5,0.5184,0.0,0.0,0.0,0.5184,0.0,0.0,0.0,2.0736,1
1563269791567878006,3436,1563269791564759016,/gps,0,1,50.9377918333,-1.472435,13.5,0.5184,0.0,0.0,0.0,0.5184,0.0,0.0,0.0,2.0736,1
1563269791779794220,3437,1563269791761506080,/gps,0,1,50.937771,-1.47243016667,13.5,0.5184,0.0,0.0,0.0,0.5184,0.0,0.0,0.0,2.0736,1
1563269791987843287,3438,1563269791984612941,/gps,0,1,50.93775,-1.47242533333,13.4,0.5184,0.0,0.0,0.0,0.5184,0.0,0.0,0.0,2.0736,1
1563269792172283794,3439,1563269792166310071,/gps,0,1,50.9377286667,-1.47242016667,13.4,0.5184,0.0,0.0,0.0,0.5184,0.0,0.0,0.0,2.0736,1
1563269792365776275,3440,1563269792360893964,/gps,0,1,50.9377068333,-1.4724145,13.4,0.5184,0.0,0.0,0.0,0.5184,0.0,0.0,0.0,2.0736,1
1563269792608538491,3441,1563269792588999986,/gps,0,1,50.9376846667,-1.472409,13.3,0.5184,0.0,0.0,0.0,0.5184,0.0,0.0,0.0,2.0736,1
1563269792798554527,3442,1563269792782638072,/gps,0,1,50.9376625,-1.47240283333,13.3,0.5184,0.0,0.0,0.0,0.5184,0.0,0.0,0.0,2.0736,1
1563269792938648195,3443,1563269792937006950,/gps,0,1,50.9376398333,-1.47239683333,13.3,0.5184,0.0,0.0,0.0,0.5184,0.0,0.0,0.0,2.0736,1
1563269793192730786,3444,1563269793183032989,/gps,0,1,50.9376175,-1.47239116667,13.3,0.5184,0.0,0.0,0.0,0.5184,0.0,0.0,0.0,2.0736,1
1563269793365080492,3445,1563269793361896991,/gps,0,1,50.9375955,-1.47238583333,13.2,0.5184,0.0,0.0,0.0,0.5184,0.0,0.0,0.0,2.0736,1
1563269793559740374,3446,1563269793552406072,/gps,0,1,50.9375736667,-1.47238066667,13.2,0.5184,0.0,0.0,0.0,0.5184,0.0,0.0,0.0,2.0736,1
1563269793736636995,3447,1563269793728691101,/gps,0,1,50.9375515,-1.472376,13.2,0.5476,0.0,0.0,0.0,0.5476,0.0,0.0,0.0,2.1904,1
1563269793977393827,3448,1563269793963010072,/gps,0,1,50.9375293333,-1.47237166667,13.2,0.5476,0.0,0.0,0.0,0.5476,0.0,0.0,0.0,2.1904,1
1563269794143736373,3449,1563269794141242027,/gps,0,1,50.937507,-1.47236766667,13.2,0.5476,0.0,0.0,0.0,0.5476,0.0,0.0,0.0,2.1904,1
1563269794395228055,3450,1563269794382756948,/gps,0,1,50.9374841667,-1.47236416667,13.2,0.5476,0.0,0.0,0.0,0.5476,0.0,0.0,0.0,2.1904,1
1563269794562468874,3451,1563269794560734033,/gps,0,1,50.937461,-1.472361,13.2,0.5476,0.0,0.0,0.0,0.5476,0.0,0.0,0.0,2.1904,1
1563269794737168359,3452,1563269794735954046,/gps,0,1,50.9374375,-1.47235833333,13.2,0.5476,0.0,0.0,0.0,0.5476,0.0,0.0,0.0,2.1904,1
1563269794939915284,3453,1563269794930994033,/gps,0,1,50.9374136667,-1.47235616667,13.1,0.5476,0.0,0.0,0.0,0.5476,0.0,0.0,0.0,2.1904,1
1563269795162462247,3454,1563269795159430027,/gps,0,1,50.9373898333,-1.47235433333,13.1,0.5476,0.0,0.0,0.0,0.5476,0.0,0.0,0.0,2.1904,1
1563269795356304948,3455,1563269795348124027,/gps,0,1,50.9373661667,-1.47235333333,13.1,0.5476,0.0,0.0,0.0,0.5476,0.0,0.0,0.0,2.1904,1
1563269795586177390,3456,1563269795582325935,/gps,0,1,50.9373426667,-1.47235283333,13.1,0.5476,0.0,0.0,0.0,0.5476,0.0,0.0,0.0,2.1904,1
1563269795968056248,3457,1563269795961958885,/gps,0,1,50.937297,-1.47235166667,13.0,0.5476,0.0,0.0,0.0,0.5476,0.0,0.0,0.0,2.1904,1
1563269796118543313,3458,1563269796112751960,/gps,0,1,50.9372756667,-1.472351,13.0,0.5476,0.0,0.0,0.0,0.5476,0.0,0.0,0.0,2.1904,1
1563269796363257119,3459,1563269796357995986,/gps,0,1,50.9372555,-1.47235016667,13.0,0.5476,0.0,0.0,0.0,0.5476,0.0,0.0,0.0,2.1904,1
1563269796557182479,3460,1563269796540760993,/gps,0,1,50.9372366667,-1.47234916667,12.9,0.6241,0.0,0.0,0.0,0.6241,0.0,0.0,0.0,2.4964,1
1563269796724637801,3461,1563269796718965053,/gps,0,1,50.9372193333,-1.4723485,12.9,0.6241,0.0,0.0,0.0,0.6241,0.0,0.0,0.0,2.4964,1
1563269796962513282,3462,1563269796960326910,/gps,0,1,50.9372033333,-1.47234766667,12.9,0.6241,0.0,0.0,0.0,0.6241,0.0,0.0,0.0,2.4964,1
1563269797158349367,3463,1563269797155786037,/gps,0,1,50.9371891667,-1.472347,12.9,0.6241,0.0,0.0,0.0,0.6241,0.0,0.0,0.0,2.4964,1
1563269797326446408,3464,1563269797321099996,/gps,0,1,50.9371763333,-1.47234616667,12.9,0.6241,0.0,0.0,0.0,0.6241,0.0,0.0,0.0,2.4964,1
1563269797745055448,3465,1563269797741729021,/gps,0,1,50.9371536667,-1.47234466667,12.9,0.6241,0.0,0.0,0.0,0.6241,0.0,0.0,0.0,2.4964,1
1563269797922891206,3466,1563269797920499086,/gps,0,1,50.937143,-1.47234366667,12.9,0.6241,0.0,0.0,0.0,0.6241,0.0,0.0,0.0,2.4964,1
1563269798185596123,3467,1563269798170310020,/gps,0,1,50.9371325,-1.472343,12.9,0.6241,0.0,0.0,0.0,0.6241,0.0,0.0,0.0,2.4964,1
1563269798349631642,3468,1563269798343142986,/gps,0,1,50.9371213333,-1.472342,12.9,0.6241,0.0,0.0,0.0,0.6241,0.0,0.0,0.0,2.4964,1
1563269798548707202,3469,1563269798541759014,/gps,0,1,50.937111,-1.47234133333,12.9,0.6241,0.0,0.0,0.0,0.6241,0.0,0.0,0.0,2.4964,1
1563269798765378915,3470,1563269798758629083,/gps,0,1,50.9371003333,-1.47234033333,12.9,0.6241,0.0,0.0,0.0,0.6241,0.0,0.0,0.0,2.4964,1
1563269798937476099,3471,1563269798934967041,/gps,0,1,50.9370895,-1.47233933333,12.8,0.6241,0.0,0.0,0.0,0.6241,0.0,0.0,0.0,2.4964,1
1563269799117663718,3472,1563269799112893104,/gps,0,1,50.9370786667,-1.47233833333,12.8,0.6241,0.0,0.0,0.0,0.6241,0.0,0.0,0.0,2.4964,1
1563269799384181507,3473,1563269799374875068,/gps,0,1,50.937067,-1.47233716667,12.7,0.6241,0.0,0.0,0.0,0.6241,0.0,0.0,0.0,2.4964,1
1563269799587419426,3474,1563269799569679975,/gps,0,1,50.9370568333,-1.472336,12.6,0.5476,0.0,0.0,0.0,0.5476,0.0,0.0,0.0,2.1904,1
1563269799751468417,3475,1563269799748106002,/gps,0,1,50.9370448333,-1.4723345,12.6,0.5476,0.0,0.0,0.0,0.5476,0.0,0.0,0.0,2.1904,1
1563269799962866404,3476,1563269799958087921,/gps,0,1,50.9370333333,-1.4723335,12.5,0.5476,0.0,0.0,0.0,0.5476,0.0,0.0,0.0,2.1904,1
1563269800139649069,3477,1563269800135025024,/gps,0,1,50.9370208333,-1.472332,12.5,0.5476,0.0,0.0,0.0,0.5476,0.0,0.0,0.0,2.1904,1
1563269800393314077,3478,1563269800382100105,/gps,0,1,50.9370083333,-1.47233033333,12.4,0.5476,0.0,0.0,0.0,0.5476,0.0,0.0,0.0,2.1904,1
1563269800760960296,3479,1563269800755724906,/gps,0,1,50.9369825,-1.47232683333,12.3,0.5476,0.0,0.0,0.0,0.5476,0.0,0.0,0.0,2.1904,1
1563269800960038288,3480,1563269800939438104,/gps,0,1,50.936969,-1.47232466667,12.3,0.5476,0.0,0.0,0.0,0.5476,0.0,0.0,0.0,2.1904,1
1563269801174285722,3481,1563269801159976005,/gps,0,1,50.9369553333,-1.472322,12.3,0.5476,0.0,0.0,0.0,0.5476,0.0,0.0,0.0,2.1904,1
1563269801364519109,3482,1563269801357939958,/gps,0,1,50.9369413333,-1.4723185,12.3,0.5476,0.0,0.0,0.0,0.5476,0.0,0.0,0.0,2.1904,1
1563269801530416999,3483,1563269801523005008,/gps,0,1,50.9369271667,-1.47231383333,12.3,0.5476,0.0,0.0,0.0,0.5476,0.0,0.0,0.0,2.1904,1
1563269801796386993,3484,1563269801783174037,/gps,0,1,50.9369131667,-1.47230833333,12.3,0.5476,0.0,0.0,0.0,0.5476,0.0,0.0,0.0,2.1904,1
1563269801946016651,3485,1563269801943206071,/gps,0,1,50.936899,-1.4723015,12.3,0.5476,0.0,0.0,0.0,0.5476,0.0,0.0,0.0,2.1904,1
1563269802149245513,3486,1563269802144752025,/gps,0,1,50.9368853333,-1.47229366667,12.3,0.5476,0.0,0.0,0.0,0.5476,0.0,0.0,0.0,2.1904,1
1563269802372215467,3487,1563269802368029117,/gps,0,1,50.9368715,-1.4722845,12.2,0.5476,0.0,0.0,0.0,0.5476,0.0,0.0,0.0,2.1904,1
1563269802554070282,3488,1563269802548388004,/gps,0,1,50.9368581667,-1.472274,12.2,0.5476,0.0,0.0,0.0,0.5476,0.0,0.0,0.0,2.1904,1
1563269802728987088,3489,1563269802726798057,/gps,0,1,50.936845,-1.4722625,12.1,0.5476,0.0,0.0,0.0,0.5476,0.0,0.0,0.0,2.1904,1
1563269803164511358,3490,1563269803141845941,/gps,0,1,50.9368196667,-1.47223533333,12.1,0.5476,0.0,0.0,0.0,0.5476,0.0,0.0,0.0,2.1904,1
1563269803390899899,3491,1563269803381970882,/gps,0,1,50.9368076667,-1.47221983333,12.1,0.5476,0.0,0.0,0.0,0.5476,0.0,0.0,0.0,2.1904,1
1563269803561876020,3492,1563269803557661056,/gps,0,1,50.9367961667,-1.47220283333,12.1,0.5476,0.0,0.0,0.0,0.5476,0.0,0.0,0.0,2.1904,1
1563269803759388900,3493,1563269803751914024,/gps,0,1,50.9367851667,-1.4721845,12.1,0.5476,0.0,0.0,0.0,0.5476,0.0,0.0,0.0,2.1904,1
1563269803984225514,3494,1563269803981981039,/gps,0,1,50.936775,-1.47216516667,12.2,0.5184,0.0,0.0,0.0,0.5184,0.0,0.0,0.0,2.0736,1
1563269804166815235,3495,1563269804164755105,/gps,0,1,50.9367656667,-1.47214433333,12.2,0.5184,0.0,0.0,0.0,0.5184,0.0,0.0,0.0,2.0736,1
1563269804378410157,3496,1563269804362510919,/gps,0,1,50.936757,-1.472122,12.3,0.5184,0.0,0.0,0.0,0.5184,0.0,0.0,0.0,2.0736,1
1563269804587402266,3497,1563269804581799030,/gps,0,1,50.9367495,-1.4720985,12.3,0.5184,0.0,0.0,0.0,0.5184,0.0,0.0,0.0,2.0736,1
1563269804768004235,3498,1563269804762069940,/gps,0,1,50.936743,-1.47207366667,12.2,0.5184,0.0,0.0,0.0,0.5184,0.0,0.0,0.0,2.0736,1
1563269804944023513,3499,1563269804940443038,/gps,0,1,50.9367375,-1.47204766667,12.2,0.5184,0.0,0.0,0.0,0.5184,0.0,0.0,0.0,2.0736,1
1563269805187871624,3500,1563269805182243108,/gps,0,1,50.936733,-1.47202033333,12.1,0.5184,0.0,0.0,0.0,0.5184,0.0,0.0,0.0,2.0736,1
1563269805381170306,3501,1563269805369806051,/gps,0,1,50.9367293333,-1.47199233333,12.1,0.5184,0.0,0.0,0.0,0.5184,0.0,0.0,0.0,2.0736,1
1563269805562399274,3502,1563269805554425001,/gps,0,1,50.936727,-1.47196433333,12.2,0.3969,0.0,0.0,0.0,0.3969,0.0,0.0,0.0,1.5876,1
1563269805793247271,3503,1563269805787198066,/gps,0,1,50.9367255,-1.47193666667,12.2,0.3969,0.0,0.0,0.0,0.3969,0.0,0.0,0.0,1.5876,1
1563269805968844549,3504,1563269805962373018,/gps,0,1,50.9367248333,-1.47190916667,12.2,0.3969,0.0,0.0,0.0,0.3969,0.0,0.0,0.0,1.5876,1
1563269806152826288,3505,1563269806146750926,/gps,0,1,50.936725,-1.4718825,12.2,0.3969,0.0,0.0,0.0,0.3969,0.0,0.0,0.0,1.5876,1
1563269806386547924,3506,1563269806383852005,/gps,0,1,50.9367256667,-1.47185733333,12.2,0.3969,0.0,0.0,0.0,0.3969,0.0,0.0,0.0,1.5876,1
1563269806583696120,3507,1563269806568968057,/gps,0,1,50.9367263333,-1.4718345,12.2,0.3969,0.0,0.0,0.0,0.3969,0.0,0.0,0.0,1.5876,1
1563269806756326796,3508,1563269806749469995,/gps,0,1,50.9367271667,-1.47181366667,12.2,0.3969,0.0,0.0,0.0,0.3969,0.0,0.0,0.0,1.5876,1
1563269807008481093,3509,1563269806999183893,/gps,0,1,50.9367278333,-1.47179516667,12.2,0.3969,0.0,0.0,0.0,0.3969,0.0,0.0,0.0,1.5876,1
1563269807188438816,3510,1563269807182300090,/gps,0,1,50.9367286667,-1.471779,12.3,0.3969,0.0,0.0,0.0,0.3969,0.0,0.0,0.0,1.5876,1
1563269807351640097,3511,1563269807350142955,/gps,0,1,50.9367295,-1.47176483333,12.3,0.3969,0.0,0.0,0.0,0.3969,0.0,0.0,0.0,1.5876,1
1563269807611852668,3512,1563269807607254028,/gps,0,1,50.9367303333,-1.471751,12.3,0.3969,0.0,0.0,0.0,0.3969,0.0,0.0,0.0,1.5876,1
1563269807790126682,3513,1563269807783797979,/gps,0,1,50.936731,-1.471738,12.3,0.3969,0.0,0.0,0.0,0.3969,0.0,0.0,0.0,1.5876,1
1563269807962192666,3514,1563269807954804897,/gps,0,1,50.9367318333,-1.4717255,12.3,0.3969,0.0,0.0,0.0,0.3969,0.0,0.0,0.0,1.5876,1
1563269808202981308,3515,1563269808182889938,/gps,0,1,50.9367326667,-1.47171233333,12.4,0.3969,0.0,0.0,0.0,0.3969,0.0,0.0,0.0,1.5876,1
1563269808369840672,3516,1563269808364558935,/gps,0,1,50.9367333333,-1.47169983333,12.4,0.3969,0.0,0.0,0.0,0.3969,0.0,0.0,0.0,1.5876,1
1563269808550555766,3517,1563269808547930002,/gps,0,1,50.9367343333,-1.47168716667,12.4,0.3969,0.0,0.0,0.0,0.3969,0.0,0.0,0.0,1.5876,1
1563269808789547863,3518,1563269808783695936,/gps,0,1,50.9367353333,-1.47167383333,12.3,0.3969,0.0,0.0,0.0,0.3969,0.0,0.0,0.0,1.5876,1
1563269808966022677,3519,1563269808963790893,/gps,0,1,50.9367361667,-1.47166066667,12.4,0.3969,0.0,0.0,0.0,0.3969,0.0,0.0,0.0,1.5876,1
1563269809171891730,3520,1563269809168833017,/gps,0,1,50.9367371667,-1.47164666667,12.4,0.3969,0.0,0.0,0.0,0.3969,0.0,0.0,0.0,1.5876,1
1563269809399131725,3521,1563269809390285015,/gps,0,1,50.9367381667,-1.47163166667,12.4,0.3969,0.0,0.0,0.0,0.3969,0.0,0.0,0.0,1.5876,1
1563269809568316037,3522,1563269809563242912,/gps,0,1,50.9367393333,-1.47161683333,12.4,0.3969,0.0,0.0,0.0,0.3969,0.0,0.0,0.0,1.5876,1
1563269809752195501,3523,1563269809750255107,/gps,0,1,50.9367405,-1.47160166667,12.3,0.3969,0.0,0.0,0.0,0.3969,0.0,0.0,0.0,1.5876,1
1563269810003779698,3524,1563269809994899034,/gps,0,1,50.936742,-1.47158516667,12.4,0.3969,0.0,0.0,0.0,0.3969,0.0,0.0,0.0,1.5876,1
1563269810213078122,3525,1563269810174784898,/gps,0,1,50.9367433333,-1.47156783333,12.4,0.3969,0.0,0.0,0.0,0.3969,0.0,0.0,0.0,1.5876,1
1563269810600577341,3526,1563269810598093986,/gps,0,1,50.9367466667,-1.47153033333,12.5,0.3969,0.0,0.0,0.0,0.3969,0.0,0.0,0.0,1.5876,1
1563269810765499516,3527,1563269810762685060,/gps,0,1,50.9367486667,-1.47150966667,12.5,0.3969,0.0,0.0,0.0,0.3969,0.0,0.0,0.0,1.5876,1
1563269811014058580,3528,1563269811010876893,/gps,0,1,50.9367505,-1.47148816667,12.5,0.3969,0.0,0.0,0.0,0.3969,0.0,0.0,0.0,1.5876,1
1563269811193729573,3529,1563269811191586017,/gps,0,1,50.9367526667,-1.47146533333,12.5,0.3969,0.0,0.0,0.0,0.3969,0.0,0.0,0.0,1.5876,1
1563269811383880205,3530,1563269811379862070,/gps,0,1,50.9367546667,-1.47144216667,12.6,0.3969,0.0,0.0,0.0,0.3969,0.0,0.0,0.0,1.5876,1
1563269811622670119,3531,1563269811610321044,/gps,0,1,50.9367568333,-1.47141766667,12.6,0.3969,0.0,0.0,0.0,0.3969,0.0,0.0,0.0,1.5876,1
1563269811798646547,3532,1563269811789937973,/gps,0,1,50.9367591667,-1.47139233333,12.6,0.3969,0.0,0.0,0.0,0.3969,0.0,0.0,0.0,1.5876,1
1563269811988173669,3533,1563269811985650062,/gps,0,1,50.9367615,-1.4713665,12.7,0.3969,0.0,0.0,0.0,0.3969,0.0,0.0,0.0,1.5876,1
1563269812234846234,3534,1563269812209902048,/gps,0,1,50.936764,-1.47133966667,12.7,0.3969,0.0,0.0,0.0,0.3969,0.0,0.0,0.0,1.5876,1
1563269812395802443,3535,1563269812390880107,/gps,0,1,50.9367665,-1.47131216667,12.8,0.3969,0.0,0.0,0.0,0.3969,0.0,0.0,0.0,1.5876,1
1563269812632595869,3536,1563269812614840030,/gps,0,1,50.9367691667,-1.471284,12.8,0.3969,0.0,0.0,0.0,0.3969,0.0,0.0,0.0,1.5876,1
1563269812816656907,3537,1563269812811090946,/gps,0,1,50.9367718333,-1.47125516667,12.8,0.3969,0.0,0.0,0.0,0.3969,0.0,0.0,0.0,1.5876,1
1563269812999710261,3538,1563269812986076116,/gps,0,1,50.9367746667,-1.47122566667,12.8,0.3969,0.0,0.0,0.0,0.3969,0.0,0.0,0.0,1.5876,1
1563269813183780067,3539,1563269813174248933,/gps,0,1,50.9367776667,-1.4711955,12.9,0.3969,0.0,0.0,0.0,0.3969,0.0,0.0,0.0,1.5876,1
1563269813419958272,3540,1563269813417654037,/gps,0,1,50.9367806667,-1.47116466667,13.0,0.3969,0.0,0.0,0.0,0.3969,0.0,0.0,0.0,1.5876,1
1563269813591862329,3541,1563269813590178012,/gps,0,1,50.9367836667,-1.47113333333,13.0,0.3969,0.0,0.0,0.0,0.3969,0.0,0.0,0.0,1.5876,1
1563269813785848491,3542,1563269813777056932,/gps,0,1,50.9367865,-1.4711015,13.0,0.3969,0.0,0.0,0.0,0.3969,0.0,0.0,0.0,1.5876,1
1563269814016847726,3543,1563269814012173891,/gps,0,1,50.9367893333,-1.47106866667,13.0,0.3969,0.0,0.0,0.0,0.3969,0.0,0.0,0.0,1.5876,1
1563269814199772211,3544,1563269814187596082,/gps,0,1,50.9367918333,-1.47103633333,13.1,0.3969,0.0,0.0,0.0,0.3969,0.0,0.0,0.0,1.5876,1
1563269814389017339,3545,1563269814382082939,/gps,0,1,50.936794,-1.47100433333,13.1,0.3969,0.0,0.0,0.0,0.3969,0.0,0.0,0.0,1.5876,1
1563269814619015993,3546,1563269814610796928,/gps,0,1,50.9367961667,-1.47097216667,13.1,0.3969,0.0,0.0,0.0,0.3969,0.0,0.0,0.0,1.5876,1
1563269814797453181,3547,1563269814794214963,/gps,0,1,50.9367976667,-1.47094066667,13.1,0.3969,0.0,0.0,0.0,0.3969,0.0,0.0,0.0,1.5876,1
1563269814979022194,3548,1563269814976602077,/gps,0,1,50.936799,-1.47090916667,13.2,0.3969,0.0,0.0,0.0,0.3969,0.0,0.0,0.0,1.5876,1
1563269815215808644,3549,1563269815212271928,/gps,0,1,50.9367998333,-1.47087783333,13.2,0.3969,0.0,0.0,0.0,0.3969,0.0,0.0,0.0,1.5876,1
1563269815415607431,3550,1563269815398883104,/gps,0,1,50.9368005,-1.47084683333,13.2,0.3969,0.0,0.0,0.0,0.3969,0.0,0.0,0.0,1.5876,1
1563269815633359534,3551,1563269815630779027,/gps,0,1,50.9368008333,-1.47081633333,13.2,0.3969,0.0,0.0,0.0,0.3969,0.0,0.0,0.0,1.5876,1
1563269815816361846,3552,1563269815809782028,/gps,0,1,50.9368008333,-1.47078616667,13.3,0.3969,0.0,0.0,0.0,0.3969,0.0,0.0,0.0,1.5876,1
1563269815990727720,3553,1563269815988162040,/gps,0,1,50.9368008333,-1.47075633333,13.3,0.3969,0.0,0.0,0.0,0.3969,0.0,0.0,0.0,1.5876,1
1563269816177584634,3554,1563269816175007104,/gps,0,1,50.936801,-1.47072683333,13.3,0.3969,0.0,0.0,0.0,0.3969,0.0,0.0,0.0,1.5876,1
1563269816418966865,3555,1563269816416486024,/gps,0,1,50.9368016667,-1.47069783333,13.3,0.3969,0.0,0.0,0.0,0.3969,0.0,0.0,0.0,1.5876,1
1563269816605886214,3556,1563269816598498106,/gps,0,1,50.9368031667,-1.4706685,13.4,0.3969,0.0,0.0,0.0,0.3969,0.0,0.0,0.0,1.5876,1
1563269816795440089,3557,1563269816787276983,/gps,0,1,50.9368053333,-1.47063983333,13.4,0.3969,0.0,0.0,0.0,0.3969,0.0,0.0,0.0,1.5876,1
1563269817017856263,3558,1563269817013271093,/gps,0,1,50.9368083333,-1.47061133333,13.4,0.3969,0.0,0.0,0.0,0.3969,0.0,0.0,0.0,1.5876,1
1563269817197480886,3559,1563269817191057920,/gps,0,1,50.9368123333,-1.47058366667,13.4,0.3969,0.0,0.0,0.0,0.3969,0.0,0.0,0.0,1.5876,1
1563269817406298300,3560,1563269817401416063,/gps,0,1,50.9368168333,-1.47055633333,13.4,0.3969,0.0,0.0,0.0,0.3969,0.0,0.0,0.0,1.5876,1
1563269817621072248,3561,1563269817614149093,/gps,0,1,50.9368221667,-1.47052983333,13.4,0.3969,0.0,0.0,0.0,0.3969,0.0,0.0,0.0,1.5876,1
1563269817797563767,3562,1563269817792099952,/gps,0,1,50.9368283333,-1.4705045,13.5,0.3969,0.0,0.0,0.0,0.3969,0.0,0.0,0.0,1.5876,1
1563269818020595611,3563,1563269818009375095,/gps,0,1,50.9368351667,-1.47047983333,13.5,0.3969,0.0,0.0,0.0,0.3969,0.0,0.0,0.0,1.5876,1
1563269818222042521,3564,1563269818210355043,/gps,0,1,50.9368421667,-1.47045583333,13.5,0.3969,0.0,0.0,0.0,0.3969,0.0,0.0,0.0,1.5876,1
1563269818403117564,3565,1563269818395224094,/gps,0,1,50.9368491667,-1.470433,13.5,0.3969,0.0,0.0,0.0,0.3969,0.0,0.0,0.0,1.5876,1
1563269818576701458,3566,1563269818574625968,/gps,0,1,50.9368556667,-1.47041033333,13.6,0.3969,0.0,0.0,0.0,0.3969,0.0,0.0,0.0,1.5876,1
1563269818812272344,3567,1563269818809914112,/gps,0,1,50.9368615,-1.47038783333,13.5,0.3969,0.0,0.0,0.0,0.3969,0.0,0.0,0.0,1.5876,1
1563269818994963253,3568,1563269818992402076,/gps,0,1,50.9368665,-1.47036566667,13.5,0.3969,0.0,0.0,0.0,0.3969,0.0,0.0,0.0,1.5876,1
1563269819174383388,3569,1563269819167650938,/gps,0,1,50.9368711667,-1.47034416667,13.5,0.3969,0.0,0.0,0.0,0.3969,0.0,0.0,0.0,1.5876,1
1563269819429276856,3570,1563269819415375947,/gps,0,1,50.9368753333,-1.4703225,13.5,0.3969,0.0,0.0,0.0,0.3969,0.0,0.0,0.0,1.5876,1
1563269819608301713,3571,1563269819599466085,/gps,0,1,50.9368788333,-1.47030116667,13.5,0.3969,0.0,0.0,0.0,0.3969,0.0,0.0,0.0,1.5876,1
1563269819784480260,3572,1563269819777774095,/gps,0,1,50.9368813333,-1.47027983333,13.5,0.3969,0.0,0.0,0.0,0.3969,0.0,0.0,0.0,1.5876,1
1563269820051328334,3573,1563269820018763065,/gps,0,1,50.9368828333,-1.47025833333,13.5,0.3969,0.0,0.0,0.0,0.3969,0.0,0.0,0.0,1.5876,1
1563269820199229098,3574,1563269820192668914,/gps,0,1,50.9368831667,-1.47023766667,13.4,0.3969,0.0,0.0,0.0,0.3969,0.0,0.0,0.0,1.5876,1
1563269820397191883,3575,1563269820387377023,/gps,0,1,50.9368823333,-1.47021683333,13.4,0.3969,0.0,0.0,0.0,0.3969,0.0,0.0,0.0,1.5876,1
1563269820633843512,3576,1563269820622786998,/gps,0,1,50.9368805,-1.4701965,13.4,0.3969,0.0,0.0,0.0,0.3969,0.0,0.0,0.0,1.5876,1
1563269820810068653,3577,1563269820807962894,/gps,0,1,50.9368778333,-1.47017666667,13.4,0.3969,0.0,0.0,0.0,0.3969,0.0,0.0,0.0,1.5876,1
1563269820999312212,3578,1563269820978429079,/gps,0,1,50.936874,-1.47015733333,13.4,0.3969,0.0,0.0,0.0,0.3969,0.0,0.0,0.0,1.5876,1
1563269821402656928,3579,1563269821393611907,/gps,0,1,50.9368631667,-1.47012083333,13.3,0.3969,0.0,0.0,0.0,0.3969,0.0,0.0,0.0,1.5876,1
1563269821631990727,3580,1563269821619375944,/gps,0,1,50.9368558333,-1.470104,13.3,0.3969,0.0,0.0,0.0,0.3969,0.0,0.0,0.0,1.5876,1
1563269821817748466,3581,1563269821814785003,/gps,0,1,50.936848,-1.47008883333,13.3,0.3969,0.0,0.0,0.0,0.3969,0.0,0.0,0.0,1.5876,1
1563269822009157096,3582,1563269822003931999,/gps,0,1,50.9368395,-1.4700745,13.2,0.3969,0.0,0.0,0.0,0.3969,0.0,0.0,0.0,1.5876,1
1563269822217717957,3583,1563269822210194110,/gps,0,1,50.9368298333,-1.47006166667,13.2,0.3969,0.0,0.0,0.0,0.3969,0.0,0.0,0.0,1.5876,1
1563269822422943498,3584,1563269822421377897,/gps,0,1,50.9368195,-1.47005033333,13.1,0.3969,0.0,0.0,0.0,0.3969,0.0,0.0,0.0,1.5876,1
1563269822608812345,3585,1563269822595491886,/gps,0,1,50.9368085,-1.47004066667,13.0,0.3969,0.0,0.0,0.0,0.3969,0.0,0.0,0.0,1.5876,1
1563269822786856527,3586,1563269822782152891,/gps,0,1,50.936797,-1.47003266667,13.0,0.3969,0.0,0.0,0.0,0.3969,0.0,0.0,0.0,1.5876,1
1563269823020582131,3587,1563269823011373996,/gps,0,1,50.936785,-1.47002666667,13.0,0.3969,0.0,0.0,0.0,0.3969,0.0,0.0,0.0,1.5876,1
1563269823201111682,3588,1563269823192822933,/gps,0,1,50.9367725,-1.47002233333,12.9,0.3969,0.0,0.0,0.0,0.3969,0.0,0.0,0.0,1.5876,1
1563269823386160148,3589,1563269823379818916,/gps,0,1,50.9367601667,-1.47001966667,12.9,0.3969,0.0,0.0,0.0,0.3969,0.0,0.0,0.0,1.5876,1
1563269823790570662,3590,1563269823788539886,/gps,0,1,50.9367348333,-1.47002016667,12.8,0.3969,0.0,0.0,0.0,0.3969,0.0,0.0,0.0,1.5876,1
1563269823999073473,3591,1563269823990881919,/gps,0,1,50.9367223333,-1.47002283333,12.7,0.3969,0.0,0.0,0.0,0.3969,0.0,0.0,0.0,1.5876,1
1563269824248105547,3592,1563269824228400945,/gps,0,1,50.9367098333,-1.47002733333,12.7,0.3969,0.0,0.0,0.0,0.3969,0.0,0.0,0.0,1.5876,1
1563269824412854500,3593,1563269824407941102,/gps,0,1,50.9366976667,-1.4700335,12.7,0.3969,0.0,0.0,0.0,0.3969,0.0,0.0,0.0,1.5876,1
1563269824577525818,3594,1563269824574409008,/gps,0,1,50.9366858333,-1.4700415,12.7,0.3969,0.0,0.0,0.0,0.3969,0.0,0.0,0.0,1.5876,1
1563269824810439937,3595,1563269824808918952,/gps,0,1,50.9366745,-1.47005083333,12.7,0.3969,0.0,0.0,0.0,0.3969,0.0,0.0,0.0,1.5876,1
1563269825012484020,3596,1563269825000693082,/gps,0,1,50.9366638333,-1.470062,12.7,0.3969,0.0,0.0,0.0,0.3969,0.0,0.0,0.0,1.5876,1
1563269825180002032,3597,1563269825174815893,/gps,0,1,50.936654,-1.4700745,12.7,0.3969,0.0,0.0,0.0,0.3969,0.0,0.0,0.0,1.5876,1
1563269825413936924,3598,1563269825410928964,/gps,0,1,50.9366448333,-1.4700885,12.7,0.3969,0.0,0.0,0.0,0.3969,0.0,0.0,0.0,1.5876,1
1563269825596839904,3599,1563269825586656093,/gps,0,1,50.9366366667,-1.47010416667,12.7,0.3969,0.0,0.0,0.0,0.3969,0.0,0.0,0.0,1.5876,1
1563269825800587665,3600,1563269825798346042,/gps,0,1,50.9366293333,-1.47012083333,12.7,0.3969,0.0,0.0,0.0,0.3969,0.0,0.0,0.0,1.5876,1
1563269826196927105,3601,1563269826192888021,/gps,0,1,50.9366173333,-1.470157,12.7,0.3969,0.0,0.0,0.0,0.3969,0.0,0.0,0.0,1.5876,1
1563269826383707057,3602,1563269826375330924,/gps,0,1,50.9366128333,-1.47017633333,12.7,0.3969,0.0,0.0,0.0,0.3969,0.0,0.0,0.0,1.5876,1
1563269826622334341,3603,1563269826610323905,/gps,0,1,50.9366093333,-1.47019633333,12.7,0.3969,0.0,0.0,0.0,0.3969,0.0,0.0,0.0,1.5876,1
1563269826795922619,3604,1563269826792797088,/gps,0,1,50.936607,-1.4702165,12.7,0.3969,0.0,0.0,0.0,0.3969,0.0,0.0,0.0,1.5876,1
1563269826986750652,3605,1563269826978523969,/gps,0,1,50.9366058333,-1.4702375,12.8,0.3969,0.0,0.0,0.0,0.3969,0.0,0.0,0.0,1.5876,1
1563269827213655692,3606,1563269827209736108,/gps,0,1,50.9366058333,-1.47025833333,12.8,0.3969,0.0,0.0,0.0,0.3969,0.0,0.0,0.0,1.5876,1
1563269827390142538,3607,1563269827387403011,/gps,0,1,50.936607,-1.47027916667,12.8,0.3969,0.0,0.0,0.0,0.3969,0.0,0.0,0.0,1.5876,1
1563269827596919847,3608,1563269827590059995,/gps,0,1,50.9366093333,-1.47029983333,12.9,0.3969,0.0,0.0,0.0,0.3969,0.0,0.0,0.0,1.5876,1
1563269827814031735,3609,1563269827808765888,/gps,0,1,50.9366128333,-1.47032016667,12.9,0.3969,0.0,0.0,0.0,0.3969,0.0,0.0,0.0,1.5876,1
1563269828032406420,3610,1563269827998608112,/gps,0,1,50.936617,-1.47034,13.0,0.3969,0.0,0.0,0.0,0.3969,0.0,0.0,0.0,1.5876,1
1563269828226129213,3611,1563269828222333908,/gps,0,1,50.9366226667,-1.47035916667,13.1,0.3969,0.0,0.0,0.0,0.3969,0.0,0.0,0.0,1.5876,1
1563269828412913421,3612,1563269828409214973,/gps,0,1,50.9366295,-1.4703775,13.1,0.3969,0.0,0.0,0.0,0.3969,0.0,0.0,0.0,1.5876,1
1563269828603732877,3613,1563269828592075109,/gps,0,1,50.9366371667,-1.47039516667,13.2,0.3969,0.0,0.0,0.0,0.3969,0.0,0.0,0.0,1.5876,1
1563269828784755342,3614,1563269828776108026,/gps,0,1,50.9366458333,-1.470412,13.2,0.3969,0.0,0.0,0.0,0.3969,0.0,0.0,0.0,1.5876,1
1563269829200148650,3615,1563269829196245908,/gps,0,1,50.9366648333,-1.47044433333,13.2,0.3969,0.0,0.0,0.0,0.3969,0.0,0.0,0.0,1.5876,1
1563269829369312673,3616,1563269829364228010,/gps,0,1,50.9366746667,-1.47046083333,13.2,0.3969,0.0,0.0,0.0,0.3969,0.0,0.0,0.0,1.5876,1
1563269829618671671,3617,1563269829612302064,/gps,0,1,50.9366843333,-1.47047766667,13.3,0.3969,0.0,0.0,0.0,0.3969,0.0,0.0,0.0,1.5876,1
1563269829799596756,3618,1563269829791987895,/gps,0,1,50.9366938333,-1.47049533333,13.3,0.3969,0.0,0.0,0.0,0.3969,0.0,0.0,0.0,1.5876,1
1563269829976656071,3619,1563269829972402095,/gps,0,1,50.936703,-1.470514,13.3,0.3969,0.0,0.0,0.0,0.3969,0.0,0.0,0.0,1.5876,1
1563269830408650615,3620,1563269830402214050,/gps,0,1,50.9367206667,-1.47055466667,13.4,0.3969,0.0,0.0,0.0,0.3969,0.0,0.0,0.0,1.5876,1
1563269830601734697,3621,1563269830577912092,/gps,0,1,50.9367288333,-1.47057716667,13.4,0.3969,0.0,0.0,0.0,0.3969,0.0,0.0,0.0,1.5876,1
1563269830998479176,3622,1563269830995260953,/gps,0,1,50.9367433333,-1.4706255,13.5,0.3969,0.0,0.0,0.0,0.3969,0.0,0.0,0.0,1.5876,1
1563269831182093158,3623,1563269831177022933,/gps,0,1,50.9367491667,-1.47065083333,13.5,0.3969,0.0,0.0,0.0,0.3969,0.0,0.0,0.0,1.5876,1
1563269831423673124,3624,1563269831414112091,/gps,0,1,50.9367541667,-1.47067716667,13.6,0.3969,0.0,0.0,0.0,0.3969,0.0,0.0,0.0,1.5876,1
1563269831605168278,3625,1563269831603385925,/gps,0,1,50.936758,-1.4707045,13.6,0.3969,0.0,0.0,0.0,0.3969,0.0,0.0,0.0,1.5876,1
1563269831791029348,3626,1563269831783638000,/gps,0,1,50.9367608333,-1.4707325,13.6,0.3969,0.0,0.0,0.0,0.3969,0.0,0.0,0.0,1.5876,1
1563269832032542592,3627,1563269832010938882,/gps,0,1,50.936763,-1.4707615,13.6,0.3969,0.0,0.0,0.0,0.3969,0.0,0.0,0.0,1.5876,1
1563269832201935616,3628,1563269832195060968,/gps,0,1,50.936764,-1.47079116667,13.6,0.3969,0.0,0.0,0.0,0.3969,0.0,0.0,0.0,1.5876,1
1563269832389394471,3629,1563269832380506038,/gps,0,1,50.9367641667,-1.47082183333,13.5,0.3969,0.0,0.0,0.0,0.3969,0.0,0.0,0.0,1.5876,1
1563269832629513681,3630,1563269832616847991,/gps,0,1,50.9367636667,-1.470853,13.6,0.3969,0.0,0.0,0.0,0.3969,0.0,0.0,0.0,1.5876,1
1563269832826198820,3631,1563269832803777933,/gps,0,1,50.9367621667,-1.4708845,13.5,0.3969,0.0,0.0,0.0,0.3969,0.0,0.0,0.0,1.5876,1
1563269833009718591,3632,1563269832975766897,/gps,0,1,50.9367603333,-1.470917,13.5,0.3969,0.0,0.0,0.0,0.3969,0.0,0.0,0.0,1.5876,1
1563269833221577042,3633,1563269833211488008,/gps,0,1,50.936758,-1.47094983333,13.5,0.3969,0.0,0.0,0.0,0.3969,0.0,0.0,0.0,1.5876,1
1563269833412942886,3634,1563269833407996892,/gps,0,1,50.9367555,-1.47098316667,13.5,0.3969,0.0,0.0,0.0,0.3969,0.0,0.0,0.0,1.5876,1
1563269833590736755,3635,1563269833579158067,/gps,0,1,50.9367528333,-1.47101733333,13.5,0.3969,0.0,0.0,0.0,0.3969,0.0,0.0,0.0,1.5876,1
